{
  "type": "FeatureCollection",
  "features": [
    {
      "type": "Feature",
      "geometry": {
        "type": "Point",
        "coordinates": [
          -0.136482,
          51.234312
        ]
      },
      "properties": {
        "id": "farm_y7stfk4frs",
        "name": "Priory Farm Shop",
        "slug": "priory-farm-shop",
        "address": "Priory Farm Sandy Lane",
        "city": "Redhill RH1 4EJ",
        "county": "",
        "postcode": "UK"
      }
    },
    {
      "type": "Feature",
      "geometry": {
        "type": "Point",
        "coordinates": [
          0.2432337,
          51.5389676
        ]
      },
      "properties": {
        "id": "farm_2hn5d1nf32",
        "name": "Bloom & Veg",
        "slug": "bloom-veg",
        "address": "Central Farm",
        "city": "Upminster RM14 2TW",
        "county": "",
        "postcode": "UK"
      }
    },
    {
      "type": "Feature",
      "geometry": {
        "type": "Point",
        "coordinates": [
          0.0946814,
          51.5971878
        ]
      },
      "properties": {
        "id": "farm_6pc0zbvxox",
        "name": "Forest Farm Shop",
        "slug": "forest-farm-shop",
        "address": "Forest Rd",
        "city": "Ilford IG6 3HQ",
        "county": "",
        "postcode": "UK"
      }
    },
    {
      "type": "Feature",
      "geometry": {
        "type": "Point",
        "coordinates": [
          0.1318778,
          51.350547
        ]
      },
      "properties": {
        "id": "farm_56v7qppugv",
        "name": "Hewitt's Farm shop",
        "slug": "hewitt-s-farm-shop",
        "address": "Hewitts farm",
        "city": "Orpington BR6 9BX",
        "county": "",
        "postcode": "UK"
      }
    },
    {
      "type": "Feature",
      "geometry": {
        "type": "Point",
        "coordinates": [
          0.512828,
          51.0852073
        ]
      },
      "properties": {
        "id": "farm_8kbscfs7en",
        "name": "Hartley Farm Shop",
        "slug": "hartley-farm-shop",
        "address": "Hartley Rd",
        "city": "Cranbrook TN17 3QG",
        "county": "",
        "postcode": "UK"
      }
    },
    {
      "type": "Feature",
      "geometry": {
        "type": "Point",
        "coordinates": [
          -0.4470722,
          51.6040329
        ]
      },
      "properties": {
        "id": "farm_2e8zyvjg5b",
        "name": "Ducks Hill Farm",
        "slug": "ducks-hill-farm",
        "address": "Ducks Hill Rd",
        "city": "Northwood HA6 2SP",
        "county": "",
        "postcode": "UK"
      }
    },
    {
      "type": "Feature",
      "geometry": {
        "type": "Point",
        "coordinates": [
          -0.6852674,
          51.8138154
        ]
      },
      "properties": {
        "id": "farm_haden6zeh9",
        "name": "P E Mead & Sons Farmshop",
        "slug": "p-e-mead-sons-farmshop",
        "address": "P.E Mead and Sons",
        "city": "Tring HP23 4NT",
        "county": "",
        "postcode": "UK"
      }
    },
    {
      "type": "Feature",
      "geometry": {
        "type": "Point",
        "coordinates": [
          0.4765205999999999,
          51.7101263
        ]
      },
      "properties": {
        "id": "farm_yfczhm0061",
        "name": "Lathcoats Farm",
        "slug": "lathcoats-farm",
        "address": "Beehive Ln",
        "city": "Chelmsford CM2 8LX",
        "county": "",
        "postcode": "UK"
      }
    },
    {
      "type": "Feature",
      "geometry": {
        "type": "Point",
        "coordinates": [
          -0.2879939,
          51.1545771
        ]
      },
      "properties": {
        "id": "farm_bvszc1uoet",
        "name": "Tanhouse Farm Shop",
        "slug": "tanhouse-farm-shop",
        "address": "Tanhouse Farm",
        "city": "Dorking RH5 5BX",
        "county": "",
        "postcode": "UK"
      }
    },
    {
      "type": "Feature",
      "geometry": {
        "type": "Point",
        "coordinates": [
          0.2371342,
          51.1070681
        ]
      },
      "properties": {
        "id": "farm_gn2y878hno",
        "name": "Fuller's Farm Shop",
        "slug": "fuller-s-farm-shop",
        "address": "1 The Barn",
        "city": "Tunbridge Wells TN3 9BY",
        "county": "",
        "postcode": "UK"
      }
    },
    {
      "type": "Feature",
      "geometry": {
        "type": "Point",
        "coordinates": [
          -0.798864,
          51.608531
        ]
      },
      "properties": {
        "id": "farm_440exxn248",
        "name": "Westside Fruit Ltd",
        "slug": "westside-fruit-ltd",
        "address": "Booker Farm Shop",
        "city": "Booker SL7 3DJ",
        "county": "",
        "postcode": "UK"
      }
    },
    {
      "type": "Feature",
      "geometry": {
        "type": "Point",
        "coordinates": [
          -0.7247629999999999,
          51.6865049
        ]
      },
      "properties": {
        "id": "farm_x9w3p7cu1z",
        "name": "Peterley Manor Farm",
        "slug": "peterley-manor-farm",
        "address": "Peterley Ln",
        "city": "Great Missenden HP16 0HH",
        "county": "",
        "postcode": "UK"
      }
    },
    {
      "type": "Feature",
      "geometry": {
        "type": "Point",
        "coordinates": [
          -0.2832552,
          51.0852161
        ]
      },
      "properties": {
        "id": "farm_lph2r3cwji",
        "name": "New House Farm Shop",
        "slug": "new-house-farm-shop",
        "address": "Old Crawley Rd",
        "city": "Horsham RH12 4RU",
        "county": "",
        "postcode": "UK"
      }
    },
    {
      "type": "Feature",
      "geometry": {
        "type": "Point",
        "coordinates": [
          -0.8200314999999999,
          51.395991
        ]
      },
      "properties": {
        "id": "farm_mzy37a5jhy",
        "name": "Gray's Farm",
        "slug": "gray-s-farm",
        "address": "Heathlands Rd",
        "city": "Wokingham RG40 3AN",
        "county": "",
        "postcode": "UK"
      }
    },
    {
      "type": "Feature",
      "geometry": {
        "type": "Point",
        "coordinates": [
          -0.8336471,
          51.1207629
        ]
      },
      "properties": {
        "id": "farm_4ft8rchyyo",
        "name": "Luff's Farm Shop",
        "slug": "luff-s-farm-shop",
        "address": "Mill Ln",
        "city": "Bordon GU35 0PB",
        "county": "",
        "postcode": "UK"
      }
    },
    {
      "type": "Feature",
      "geometry": {
        "type": "Point",
        "coordinates": [
          0.4549909,
          51.6010413
        ]
      },
      "properties": {
        "id": "farm_l36u6054zh",
        "name": "Barleylands Farm Shop",
        "slug": "barleylands-farm-shop",
        "address": "Southend Rd",
        "city": "Billericay CM11 2UQ",
        "county": "",
        "postcode": "UK"
      }
    },
    {
      "type": "Feature",
      "geometry": {
        "type": "Point",
        "coordinates": [
          -0.7758134,
          51.7361636
        ]
      },
      "properties": {
        "id": "farm_edqba930rn",
        "name": "Buckmoorend Farm Shop",
        "slug": "buckmoorend-farm-shop",
        "address": "Buckmoorend Farm",
        "city": "Aylesbury HP17 0UT",
        "county": "",
        "postcode": "UK"
      }
    },
    {
      "type": "Feature",
      "geometry": {
        "type": "Point",
        "coordinates": [
          0.5107087,
          51.7203656
        ]
      },
      "properties": {
        "id": "farm_e9zw6kn8uu",
        "name": "Manor Farm Shop",
        "slug": "manor-farm-shop",
        "address": "Maldon Rd",
        "city": "Chelmsford CM2 7DQ",
        "county": "",
        "postcode": "UK"
      }
    },
    {
      "type": "Feature",
      "geometry": {
        "type": "Point",
        "coordinates": [
          -0.5884669,
          51.4677926
        ]
      },
      "properties": {
        "id": "farm_nkre95fxvl",
        "name": "Windsor Farm Shop",
        "slug": "windsor-farm-shop",
        "address": "Datchet Rd",
        "city": "Windsor SL4 2RQ",
        "county": "",
        "postcode": "UK"
      }
    },
    {
      "type": "Feature",
      "geometry": {
        "type": "Point",
        "coordinates": [
          0.2864508,
          51.6278777
        ]
      },
      "properties": {
        "id": "farm_q05opnmyxx",
        "name": "Calcott Hall Farm",
        "slug": "calcott-hall-farm",
        "address": "Calcott Hall Farm",
        "city": "Brentwood CM15 9HS",
        "county": "",
        "postcode": "UK"
      }
    },
    {
      "type": "Feature",
      "geometry": {
        "type": "Point",
        "coordinates": [
          0.1675284,
          51.414718
        ]
      },
      "properties": {
        "id": "farm_zryqvhnbvx",
        "name": "Stanhill Farm",
        "slug": "stanhill-farm",
        "address": "The Farm House",
        "city": "Dartford DA2 7HD",
        "county": "",
        "postcode": "UK"
      }
    },
    {
      "type": "Feature",
      "geometry": {
        "type": "Point",
        "coordinates": [
          -0.4306035,
          51.2148639
        ]
      },
      "properties": {
        "id": "farm_jn3z26wil6",
        "name": "Kingfisher Farm & Flower Shop",
        "slug": "kingfisher-farm-flower-shop",
        "address": "Guildford Rd",
        "city": "Dorking RH5 6AG",
        "county": "",
        "postcode": "UK"
      }
    },
    {
      "type": "Feature",
      "geometry": {
        "type": "Point",
        "coordinates": [
          0.0120542,
          51.9004516
        ]
      },
      "properties": {
        "id": "farm_djnj6vbg2i",
        "name": "Pearce's Farm Shop & Cafe",
        "slug": "pearce-s-farm-shop-cafe",
        "address": "A10",
        "city": "Buntingford SG9 9ND",
        "county": "",
        "postcode": "UK"
      }
    },
    {
      "type": "Feature",
      "geometry": {
        "type": "Point",
        "coordinates": [
          0.136999,
          51.41309589999999
        ]
      },
      "properties": {
        "id": "farm_uq6mccsp6p",
        "name": "Honeydale Farm Tea Rooms",
        "slug": "honeydale-farm-tea-rooms",
        "address": "217 Maidstone Rd",
        "city": "Sidcup DA14 5AW",
        "county": "",
        "postcode": "UK"
      }
    },
    {
      "type": "Feature",
      "geometry": {
        "type": "Point",
        "coordinates": [
          -0.3152746,
          51.773747
        ]
      },
      "properties": {
        "id": "farm_9j5j8bn1j0",
        "name": "Carpenters Nursery & Farm Shop",
        "slug": "carpenters-nursery-farm-shop",
        "address": "106 St.Albans Rd",
        "city": "St Albans AL4 9LJ",
        "county": "",
        "postcode": "UK"
      }
    },
    {
      "type": "Feature",
      "geometry": {
        "type": "Point",
        "coordinates": [
          -0.8449317,
          51.6207593
        ]
      },
      "properties": {
        "id": "farm_fta3vj218z",
        "name": "Laceys Farm Shop",
        "slug": "laceys-farm-shop",
        "address": "Bolter End Farm",
        "city": "High Wycombe HP14 3LP",
        "county": "",
        "postcode": "UK"
      }
    },
    {
      "type": "Feature",
      "geometry": {
        "type": "Point",
        "coordinates": [
          -0.0407866,
          51.7895526
        ]
      },
      "properties": {
        "id": "farm_lfguflm87o",
        "name": "Dawlicious Milk",
        "slug": "dawlicious-milk",
        "address": "37 Downfield Rd",
        "city": "Hertford SG13 7RZ",
        "county": "",
        "postcode": "UK"
      }
    },
    {
      "type": "Feature",
      "geometry": {
        "type": "Point",
        "coordinates": [
          0.045587,
          51.098651
        ]
      },
      "properties": {
        "id": "farm_o26yhwnosk",
        "name": "Tablehurst Farm Shop and Cafe",
        "slug": "tablehurst-farm-shop-and-cafe",
        "address": "London Rd",
        "city": "Forest Row RH18 5DP",
        "county": "",
        "postcode": "UK"
      }
    },
    {
      "type": "Feature",
      "geometry": {
        "type": "Point",
        "coordinates": [
          0.4759287,
          51.1136303
        ]
      },
      "properties": {
        "id": "farm_lcw9art0t9",
        "name": "Taywell Farm Shop",
        "slug": "taywell-farm-shop",
        "address": "Taywell Farm Shop",
        "city": "Cranbrook TN17 1DY",
        "county": "",
        "postcode": "UK"
      }
    },
    {
      "type": "Feature",
      "geometry": {
        "type": "Point",
        "coordinates": [
          0.436661,
          51.256341
        ]
      },
      "properties": {
        "id": "farm_k9t3iucxcp",
        "name": "Farmer's Farm Shop",
        "slug": "farmer-s-farm-shop",
        "address": "Little Court Lodge",
        "city": "Maidstone ME18 5BY",
        "county": "",
        "postcode": "UK"
      }
    },
    {
      "type": "Feature",
      "geometry": {
        "type": "Point",
        "coordinates": [
          -0.8143115999999999,
          51.9581031
        ]
      },
      "properties": {
        "id": "farm_51gt41l1hp",
        "name": "Mursley Farm Shop",
        "slug": "mursley-farm-shop",
        "address": "Oliver's Field",
        "city": "Milton Keynes MK17 0PL",
        "county": "",
        "postcode": "UK"
      }
    },
    {
      "type": "Feature",
      "geometry": {
        "type": "Point",
        "coordinates": [
          -0.326478,
          51.7287352
        ]
      },
      "properties": {
        "id": "farm_stp2z9mctf",
        "name": "Hedges Farm Shop",
        "slug": "hedges-farm-shop",
        "address": "N Orbital Rd",
        "city": "St Albans AL2 2ET",
        "county": "",
        "postcode": "UK"
      }
    },
    {
      "type": "Feature",
      "geometry": {
        "type": "Point",
        "coordinates": [
          0.19503,
          51.1284573
        ]
      },
      "properties": {
        "id": "farm_yzv9mfp3eo",
        "name": "Groombridge Farm Shop",
        "slug": "groombridge-farm-shop",
        "address": "Groombridge Hill",
        "city": "Tunbridge Wells TN3 9LY",
        "county": "",
        "postcode": "UK"
      }
    },
    {
      "type": "Feature",
      "geometry": {
        "type": "Point",
        "coordinates": [
          0.515312,
          51.288229
        ]
      },
      "properties": {
        "id": "farm_4jqrh40wyh",
        "name": "Ringlestone Farm Shop",
        "slug": "ringlestone-farm-shop",
        "address": "20 Calder Rd",
        "city": "Maidstone ME14 2QQ",
        "county": "",
        "postcode": "UK"
      }
    },
    {
      "type": "Feature",
      "geometry": {
        "type": "Point",
        "coordinates": [
          -0.7339446,
          51.4582728
        ]
      },
      "properties": {
        "id": "farm_k15rjkd9o4",
        "name": "Fernygrove Farm Shop & Coffee Shop",
        "slug": "fernygrove-farm-shop-coffee-shop",
        "address": "Hawthorn Ln",
        "city": "Bracknell RG42 6HN",
        "county": "",
        "postcode": "UK"
      }
    },
    {
      "type": "Feature",
      "geometry": {
        "type": "Point",
        "coordinates": [
          -0.0822222,
          51.11722220000001
        ]
      },
      "properties": {
        "id": "farm_t564kq6mlq",
        "name": "Grange Farm Shop",
        "slug": "grange-farm-shop",
        "address": "Grange Farm",
        "city": "Crawley RH10 4EY",
        "county": "",
        "postcode": "UK"
      }
    },
    {
      "type": "Feature",
      "geometry": {
        "type": "Point",
        "coordinates": [
          -0.6345396,
          51.8975922
        ]
      },
      "properties": {
        "id": "farm_r1jz53b9gq",
        "name": "The Baa T-Room",
        "slug": "the-baa-t-room",
        "address": "Greenfarm",
        "city": "Leighton Buzzard LU7 9BL",
        "county": "",
        "postcode": "UK"
      }
    },
    {
      "type": "Feature",
      "geometry": {
        "type": "Point",
        "coordinates": [
          0.5758611,
          51.6066952
        ]
      },
      "properties": {
        "id": "farm_t7bqkuhgdg",
        "name": "Nanny Kays Farm Shop",
        "slug": "nanny-kays-farm-shop",
        "address": "Rawreth",
        "city": "Wickford SS11 8SJ",
        "county": "",
        "postcode": "UK"
      }
    },
    {
      "type": "Feature",
      "geometry": {
        "type": "Point",
        "coordinates": [
          -0.6343181999999999,
          51.8401031
        ]
      },
      "properties": {
        "id": "farm_fk58u40n88",
        "name": "Groom's Farm Shop",
        "slug": "groom-s-farm-shop",
        "address": "Willowdene Farm Ford End Ivinghoe Nr",
        "city": "Leighton Buzzard LU7 9EA",
        "county": "",
        "postcode": "UK"
      }
    },
    {
      "type": "Feature",
      "geometry": {
        "type": "Point",
        "coordinates": [
          0.3289502,
          51.4130202
        ]
      },
      "properties": {
        "id": "farm_h75kq8d66m",
        "name": "Broadditch Farm Shop",
        "slug": "broadditch-farm-shop",
        "address": "Manor Farm",
        "city": "Gravesend DA13 9PU",
        "county": "",
        "postcode": "UK"
      }
    },
    {
      "type": "Feature",
      "geometry": {
        "type": "Point",
        "coordinates": [
          -0.5268377000000001,
          51.3874203
        ]
      },
      "properties": {
        "id": "farm_uee7op8bq4",
        "name": "The Farm Shop Lyne Ltd",
        "slug": "the-farm-shop-lyne-ltd",
        "address": "The Farm Shop",
        "city": "Chertsey KT16 0AA",
        "county": "",
        "postcode": "UK"
      }
    },
    {
      "type": "Feature",
      "geometry": {
        "type": "Point",
        "coordinates": [
          -0.3236376,
          51.5433818
        ]
      },
      "properties": {
        "id": "farm_seakhkm2pw",
        "name": "Horsenden Farm",
        "slug": "horsenden-farm",
        "address": "Horsenden Farm",
        "city": "Greenford UB6 7PQ",
        "county": "",
        "postcode": "UK"
      }
    },
    {
      "type": "Feature",
      "geometry": {
        "type": "Point",
        "coordinates": [
          -0.2716319,
          51.7536103
        ]
      },
      "properties": {
        "id": "farm_zo24c1akas",
        "name": "Smallford Farm Shop",
        "slug": "smallford-farm-shop",
        "address": "Hatfield Rd",
        "city": "St Albans AL4 0HE",
        "county": "",
        "postcode": "UK"
      }
    },
    {
      "type": "Feature",
      "geometry": {
        "type": "Point",
        "coordinates": [
          -0.3451632,
          51.1528216
        ]
      },
      "properties": {
        "id": "farm_0uvzzxada2",
        "name": "Village Greens Farm Shop Coles Lane, Ockley",
        "slug": "village-greens-farm-shop-coles-lane-ockley",
        "address": "Coles Ln",
        "city": "Dorking RH5 5LS",
        "county": "",
        "postcode": "UK"
      }
    },
    {
      "type": "Feature",
      "geometry": {
        "type": "Point",
        "coordinates": [
          -0.0706747,
          51.7223052
        ]
      },
      "properties": {
        "id": "farm_7njobsc8id",
        "name": "Appleby Street Farm and Shop",
        "slug": "appleby-street-farm-and-shop",
        "address": "Appleby Street Farm",
        "city": "Waltham Cross EN7 6QT",
        "county": "",
        "postcode": "UK"
      }
    },
    {
      "type": "Feature",
      "geometry": {
        "type": "Point",
        "coordinates": [
          0.3854979,
          51.91791869999999
        ]
      },
      "properties": {
        "id": "farm_o6e3wcm6ch",
        "name": "Priors Hall Farm",
        "slug": "priors-hall-farm",
        "address": "Lindsell",
        "city": "Dunmow CM6 3QR",
        "county": "",
        "postcode": "UK"
      }
    },
    {
      "type": "Feature",
      "geometry": {
        "type": "Point",
        "coordinates": [
          -0.5733836999999999,
          51.282263
        ]
      },
      "properties": {
        "id": "farm_gyinpx06xy",
        "name": "Noel's Farm Shop",
        "slug": "noel-s-farm-shop",
        "address": "Sutton Green Garden Centre",
        "city": "Guildford GU4 7QB",
        "county": "",
        "postcode": "UK"
      }
    },
    {
      "type": "Feature",
      "geometry": {
        "type": "Point",
        "coordinates": [
          0.445866,
          51.93855
        ]
      },
      "properties": {
        "id": "farm_t956q7o85z",
        "name": "The Blue Egg",
        "slug": "the-blue-egg",
        "address": "Braintree Rd",
        "city": "Braintree CM7 4PY",
        "county": "",
        "postcode": "UK"
      }
    },
    {
      "type": "Feature",
      "geometry": {
        "type": "Point",
        "coordinates": [
          0.315133,
          51.21723979999999
        ]
      },
      "properties": {
        "id": "farm_lsu072mnrs",
        "name": "Haywards Farmshop",
        "slug": "haywards-farmshop",
        "address": "Haywards Farmshop Charcott Holm",
        "city": "Tonbridge TN11 0AH",
        "county": "",
        "postcode": "UK"
      }
    },
    {
      "type": "Feature",
      "geometry": {
        "type": "Point",
        "coordinates": [
          0.4899954,
          51.4216666
        ]
      },
      "properties": {
        "id": "farm_q2nff5r471",
        "name": "Myatts of Mockbeggar Farm Shop",
        "slug": "myatts-of-mockbeggar-farm-shop",
        "address": "Town Rd",
        "city": "Rochester ME3 8EU",
        "county": "",
        "postcode": "UK"
      }
    },
    {
      "type": "Feature",
      "geometry": {
        "type": "Point",
        "coordinates": [
          0.5461581,
          51.15301909999999
        ]
      },
      "properties": {
        "id": "farm_jvihorqnvl",
        "name": "Henhurst Farm Shop",
        "slug": "henhurst-farm-shop",
        "address": "Pinnock Ln",
        "city": "Tonbridge TN12 0HD",
        "county": "",
        "postcode": "UK"
      }
    },
    {
      "type": "Feature",
      "geometry": {
        "type": "Point",
        "coordinates": [
          0.0437774,
          51.34746999999999
        ]
      },
      "properties": {
        "id": "farm_q5s5etcyyy",
        "name": "Holwood Farm Shop",
        "slug": "holwood-farm-shop",
        "address": "Yellow Barn",
        "city": "Keston BR2 6AB",
        "county": "",
        "postcode": "UK"
      }
    },
    {
      "type": "Feature",
      "geometry": {
        "type": "Point",
        "coordinates": [
          -0.667281,
          51.5812898
        ]
      },
      "properties": {
        "id": "farm_5xd6v9w1cc",
        "name": "T Rayner & Son (Castlemans Farm)",
        "slug": "t-rayner-son-castlemans-farm",
        "address": "Green Common Ln",
        "city": "High Wycombe HP10 0LH",
        "county": "",
        "postcode": "UK"
      }
    },
    {
      "type": "Feature",
      "geometry": {
        "type": "Point",
        "coordinates": [
          -0.1252551,
          51.6756235
        ]
      },
      "properties": {
        "id": "farm_bz6ik7stym",
        "name": "Botany Bay Farm Shop",
        "slug": "botany-bay-farm-shop",
        "address": "The Ridgeway",
        "city": "Enfield EN2 8AP",
        "county": "",
        "postcode": "UK"
      }
    },
    {
      "type": "Feature",
      "geometry": {
        "type": "Point",
        "coordinates": [
          -0.506706,
          51.7745344
        ]
      },
      "properties": {
        "id": "farm_7ymkbht6nz",
        "name": "Rumblers Farm Shop",
        "slug": "rumblers-farm-shop",
        "address": "Potten End Hill",
        "city": "Hemel Hempstead HP1 3BN",
        "county": "",
        "postcode": "UK"
      }
    },
    {
      "type": "Feature",
      "geometry": {
        "type": "Point",
        "coordinates": [
          0.1879106,
          51.7242166
        ]
      },
      "properties": {
        "id": "farm_knvr3a8jcf",
        "name": "Ashlyns Farm Shop",
        "slug": "ashlyns-farm-shop",
        "address": "Epping Rd",
        "city": "Epping CM16 6RZ",
        "county": "",
        "postcode": "UK"
      }
    },
    {
      "type": "Feature",
      "geometry": {
        "type": "Point",
        "coordinates": [
          0.1894887,
          51.3509161
        ]
      },
      "properties": {
        "id": "farm_06wwa7ejaj",
        "name": "Castle Farm, Kent",
        "slug": "castle-farm-kent",
        "address": "Redmans Ln",
        "city": "Sevenoaks TN14 7UB",
        "county": "",
        "postcode": "UK"
      }
    },
    {
      "type": "Feature",
      "geometry": {
        "type": "Point",
        "coordinates": [
          0.5205375999999999,
          51.081615
        ]
      },
      "properties": {
        "id": "farm_ee9g8ioi3q",
        "name": "Cranbrook Farm Shop & Nursery",
        "slug": "cranbrook-farm-shop-nursery",
        "address": "Charity Farm",
        "city": "Cranbrook TN17 3PS",
        "county": "",
        "postcode": "UK"
      }
    },
    {
      "type": "Feature",
      "geometry": {
        "type": "Point",
        "coordinates": [
          -0.1687583,
          51.3424268
        ]
      },
      "properties": {
        "id": "farm_3idjbsp5ko",
        "name": "Bushells Farm Shop",
        "slug": "bushells-farm-shop",
        "address": "1 Little Woodcote Estate",
        "city": "Carshalton SM5 4AL",
        "county": "",
        "postcode": "UK"
      }
    },
    {
      "type": "Feature",
      "geometry": {
        "type": "Point",
        "coordinates": [
          0.3669031,
          51.3010519
        ]
      },
      "properties": {
        "id": "farm_avpn08glfg",
        "name": "Hernewell Farmshop",
        "slug": "hernewell-farmshop",
        "address": "West Malling ME19 5DD",
        "city": "UK",
        "county": "",
        "postcode": "UK"
      }
    },
    {
      "type": "Feature",
      "geometry": {
        "type": "Point",
        "coordinates": [
          -1.6381553,
          53.234137
        ]
      },
      "properties": {
        "id": "farm_gi6k8xv7g4",
        "name": "Chatsworth Estate Farm Shop",
        "slug": "chatsworth-estate-farm-shop",
        "address": "Pilsley",
        "city": "Bakewell DE45 1UF",
        "county": "",
        "postcode": "UK"
      }
    },
    {
      "type": "Feature",
      "geometry": {
        "type": "Point",
        "coordinates": [
          -2.6255954,
          53.2055726
        ]
      },
      "properties": {
        "id": "farm_tt9ckwqa6y",
        "name": "The Hollies Farm Shop",
        "slug": "the-hollies-farm-shop",
        "address": "Tarporley Rd",
        "city": "Tarporley CW6 9ES",
        "county": "",
        "postcode": "UK"
      }
    },
    {
      "type": "Feature",
      "geometry": {
        "type": "Point",
        "coordinates": [
          -2.4917623,
          53.4278403
        ]
      },
      "properties": {
        "id": "farm_qyofhiidq9",
        "name": "Hoyles Moss Farm Honesty Shop",
        "slug": "hoyles-moss-farm-honesty-shop",
        "address": "Birchwood",
        "city": "Warrington WA3 6LH",
        "county": "",
        "postcode": "UK"
      }
    },
    {
      "type": "Feature",
      "geometry": {
        "type": "Point",
        "coordinates": [
          -1.8013703,
          53.6101046
        ]
      },
      "properties": {
        "id": "farm_jpw7mgu07c",
        "name": "Hinchliffe's Farm Shop",
        "slug": "hinchliffe-s-farm-shop",
        "address": "Netherton Moor Rd",
        "city": "Huddersfield HD4 7LE",
        "county": "",
        "postcode": "UK"
      }
    },
    {
      "type": "Feature",
      "geometry": {
        "type": "Point",
        "coordinates": [
          -1.6551719,
          53.6151103
        ]
      },
      "properties": {
        "id": "farm_3ggxhuwfvz",
        "name": "Thorncliffe Farm Shop",
        "slug": "thorncliffe-farm-shop",
        "address": "1 Westfield Ln",
        "city": "Huddersfield HD8 9SZ",
        "county": "",
        "postcode": "UK"
      }
    },
    {
      "type": "Feature",
      "geometry": {
        "type": "Point",
        "coordinates": [
          -1.8426143,
          53.6682413
        ]
      },
      "properties": {
        "id": "farm_amw91mjcoq",
        "name": "Brosters Farm Shop",
        "slug": "brosters-farm-shop",
        "address": "Haigh House Hill",
        "city": "Huddersfield HD3 3SZ",
        "county": "",
        "postcode": "UK"
      }
    },
    {
      "type": "Feature",
      "geometry": {
        "type": "Point",
        "coordinates": [
          -1.710649,
          53.694038
        ]
      },
      "properties": {
        "id": "farm_bkc2tcwzwl",
        "name": "Haigh's Farm Shop Ltd",
        "slug": "haigh-s-farm-shop-ltd",
        "address": "Elmgrove Farm",
        "city": "Mirfield WF14 0DQ",
        "county": "",
        "postcode": "UK"
      }
    },
    {
      "type": "Feature",
      "geometry": {
        "type": "Point",
        "coordinates": [
          -1.775319,
          53.257219
        ]
      },
      "properties": {
        "id": "farm_cn2zmnxpxe",
        "name": "Beltonville Farm Shop and Campsite",
        "slug": "beltonville-farm-shop-and-campsite",
        "address": "Beltonville Farm",
        "city": "Buxton SK17 8SS",
        "county": "",
        "postcode": "UK"
      }
    },
    {
      "type": "Feature",
      "geometry": {
        "type": "Point",
        "coordinates": [
          -2.819801,
          53.5887489
        ]
      },
      "properties": {
        "id": "farm_l629d5n7yf",
        "name": "Taylors Farm Shop Ltd",
        "slug": "taylors-farm-shop-ltd",
        "address": "Hall Ln",
        "city": "Ormskirk L40 5UW",
        "county": "",
        "postcode": "UK"
      }
    },
    {
      "type": "Feature",
      "geometry": {
        "type": "Point",
        "coordinates": [
          -1.597263,
          53.7029911
        ]
      },
      "properties": {
        "id": "farm_i7qmrs3l3d",
        "name": "Chidswell Farm Shop",
        "slug": "chidswell-farm-shop",
        "address": "Chidswell Ln",
        "city": "Dewsbury WF12 7SW",
        "county": "",
        "postcode": "UK"
      }
    },
    {
      "type": "Feature",
      "geometry": {
        "type": "Point",
        "coordinates": [
          -1.774319,
          53.6791545
        ]
      },
      "properties": {
        "id": "farm_y5z0o6noe6",
        "name": "Villa Farm Shop and Cafe",
        "slug": "villa-farm-shop-and-cafe",
        "address": "Bradley Villa Farm",
        "city": "Huddersfield HD2 2JX",
        "county": "",
        "postcode": "UK"
      }
    },
    {
      "type": "Feature",
      "geometry": {
        "type": "Point",
        "coordinates": [
          -2.8873329,
          53.0757671
        ]
      },
      "properties": {
        "id": "farm_dln5spc2d6",
        "name": "Bellis Brothers Farm Shop and Garden Centre",
        "slug": "bellis-brothers-farm-shop-and-garden-centre",
        "address": "Road Farm",
        "city": "Wrexham LL13 9YU",
        "county": "",
        "postcode": "UK"
      }
    },
    {
      "type": "Feature",
      "geometry": {
        "type": "Point",
        "coordinates": [
          -2.596383,
          53.6942509
        ]
      },
      "properties": {
        "id": "farm_6rfzee63gf",
        "name": "Spout House Farm Shop",
        "slug": "spout-house-farm-shop",
        "address": "Blackburn Rd",
        "city": "Chorley PR6 8HS",
        "county": "",
        "postcode": "UK"
      }
    },
    {
      "type": "Feature",
      "geometry": {
        "type": "Point",
        "coordinates": [
          -1.7354293,
          53.33318389999999
        ]
      },
      "properties": {
        "id": "farm_3xn8te1jk3",
        "name": "Keepers Cottage Organics",
        "slug": "keepers-cottage-organics",
        "address": "Bradwell",
        "city": "Hope Valley S33 9JT",
        "county": "",
        "postcode": "UK"
      }
    },
    {
      "type": "Feature",
      "geometry": {
        "type": "Point",
        "coordinates": [
          -1.491631,
          53.172346
        ]
      },
      "properties": {
        "id": "farm_4o6y07rfjm",
        "name": "Marsh Green Farm Shop",
        "slug": "marsh-green-farm-shop",
        "address": "Matlock Rd",
        "city": "Chesterfield S45 0DX",
        "county": "",
        "postcode": "UK"
      }
    },
    {
      "type": "Feature",
      "geometry": {
        "type": "Point",
        "coordinates": [
          -1.4907869,
          53.539026
        ]
      },
      "properties": {
        "id": "farm_sifd8fqrja",
        "name": "Rob Royd",
        "slug": "rob-royd",
        "address": "Genn Ln",
        "city": "Barnsley S70 6NW",
        "county": "",
        "postcode": "UK"
      }
    },
    {
      "type": "Feature",
      "geometry": {
        "type": "Point",
        "coordinates": [
          -2.3795098,
          53.1238325
        ]
      },
      "properties": {
        "id": "farm_5izldgjv23",
        "name": "Wheelock Hall Farm Shop",
        "slug": "wheelock-hall-farm-shop",
        "address": "Crewe Rd",
        "city": "Sandbach CW11 4RE",
        "county": "",
        "postcode": "UK"
      }
    },
    {
      "type": "Feature",
      "geometry": {
        "type": "Point",
        "coordinates": [
          -2.8831768,
          53.2612104
        ]
      },
      "properties": {
        "id": "farm_e54996z7cb",
        "name": "Lime Tree Farm Shop",
        "slug": "lime-tree-farm-shop",
        "address": "Stanney Ln",
        "city": "Chester CH2 4HT",
        "county": "",
        "postcode": "UK"
      }
    },
    {
      "type": "Feature",
      "geometry": {
        "type": "Point",
        "coordinates": [
          -1.5038322,
          53.1980908
        ]
      },
      "properties": {
        "id": "farm_zo28tjhmrx",
        "name": "Highfield House Farm Shop",
        "slug": "highfield-house-farm-shop",
        "address": "Darley Rd",
        "city": "Chesterfield S45 0LW",
        "county": "",
        "postcode": "UK"
      }
    },
    {
      "type": "Feature",
      "geometry": {
        "type": "Point",
        "coordinates": [
          -2.787597,
          53.897341
        ]
      },
      "properties": {
        "id": "farm_q09nwvd6b9",
        "name": "Bradshaws Farm Shop",
        "slug": "bradshaws-farm-shop",
        "address": "Prospect Farm Garstang By Pass Road",
        "city": "Preston PR3 0LP",
        "county": "",
        "postcode": "UK"
      }
    },
    {
      "type": "Feature",
      "geometry": {
        "type": "Point",
        "coordinates": [
          -2.2591824,
          53.0675882
        ]
      },
      "properties": {
        "id": "farm_s3qs2t2r62",
        "name": "Arbour Farm",
        "slug": "arbour-farm",
        "address": "Oak Tree Ln",
        "city": "Stoke-on-Trent ST7 1QL",
        "county": "",
        "postcode": "UK"
      }
    },
    {
      "type": "Feature",
      "geometry": {
        "type": "Point",
        "coordinates": [
          -1.8781214,
          53.7833662
        ]
      },
      "properties": {
        "id": "farm_bcrptq9z2b",
        "name": "Robertshaw's Farm Shop",
        "slug": "robertshaw-s-farm-shop",
        "address": "Keelham Hall Farm",
        "city": "Bradford BD13 3SS",
        "county": "",
        "postcode": "UK"
      }
    },
    {
      "type": "Feature",
      "geometry": {
        "type": "Point",
        "coordinates": [
          -2.230524,
          53.1499113
        ]
      },
      "properties": {
        "id": "farm_lsp7qcqydx",
        "name": "Glebe Farm",
        "slug": "glebe-farm",
        "address": "Peel Ln",
        "city": "Congleton CW12 4RQ",
        "county": "",
        "postcode": "UK"
      }
    },
    {
      "type": "Feature",
      "geometry": {
        "type": "Point",
        "coordinates": [
          -2.7865833,
          53.7060007
        ]
      },
      "properties": {
        "id": "farm_azs7gv5h00",
        "name": "Woods Farm Shop",
        "slug": "woods-farm-shop",
        "address": "Knoll Ln",
        "city": "Preston PR4 4TB",
        "county": "",
        "postcode": "UK"
      }
    },
    {
      "type": "Feature",
      "geometry": {
        "type": "Point",
        "coordinates": [
          -1.7143975,
          53.76232899999999
        ]
      },
      "properties": {
        "id": "farm_ibjjf5mlc8",
        "name": "Model Farm Shop Ltd.",
        "slug": "model-farm-shop-ltd",
        "address": "Model Farm",
        "city": "Bradford BD4 6QR",
        "county": "",
        "postcode": "UK"
      }
    },
    {
      "type": "Feature",
      "geometry": {
        "type": "Point",
        "coordinates": [
          -1.5709763,
          53.7419379
        ]
      },
      "properties": {
        "id": "farm_vm4rlz0uaf",
        "name": "Topcliffe Grange Farm",
        "slug": "topcliffe-grange-farm",
        "address": "Dewsbury Rd",
        "city": "Wakefield WF3 1SH",
        "county": "",
        "postcode": "UK"
      }
    },
    {
      "type": "Feature",
      "geometry": {
        "type": "Point",
        "coordinates": [
          -1.8696759,
          53.6352554
        ]
      },
      "properties": {
        "id": "farm_88n4em5swc",
        "name": "Bolster Moor Farmshop",
        "slug": "bolster-moor-farmshop",
        "address": "1a Bolster Moor Rd",
        "city": "Huddersfield HD7 4JU",
        "county": "",
        "postcode": "UK"
      }
    },
    {
      "type": "Feature",
      "geometry": {
        "type": "Point",
        "coordinates": [
          -2.1003642,
          53.68968220000001
        ]
      },
      "properties": {
        "id": "farm_gs85kfn8hw",
        "name": "Gordon Rigg Garden, Home & Leisure & Rigg's Farm Shop (Todmorden)",
        "slug": "gordon-rigg-garden-home-leisure-rigg-s-farm-shop-todmorden",
        "address": "Rochdale Rd",
        "city": "Todmorden OL14 7TJ",
        "county": "",
        "postcode": "UK"
      }
    },
    {
      "type": "Feature",
      "geometry": {
        "type": "Point",
        "coordinates": [
          -1.5815853,
          53.4025715
        ]
      },
      "properties": {
        "id": "farm_hklhs6hf62",
        "name": "Syke House Farm Shop",
        "slug": "syke-house-farm-shop",
        "address": "Sykehouse Ln",
        "city": "Sheffield S6 6HG",
        "county": "",
        "postcode": "UK"
      }
    },
    {
      "type": "Feature",
      "geometry": {
        "type": "Point",
        "coordinates": [
          -2.6883984,
          53.5108289
        ]
      },
      "properties": {
        "id": "farm_1mvznfdd17",
        "name": "Windy Arbour Farm Shop",
        "slug": "windy-arbour-farm-shop",
        "address": "Windy Arbour Farm",
        "city": "Wigan WN5 7XX",
        "county": "",
        "postcode": "UK"
      }
    },
    {
      "type": "Feature",
      "geometry": {
        "type": "Point",
        "coordinates": [
          -1.637037,
          53.873266
        ]
      },
      "properties": {
        "id": "farm_t6d5wa65uc",
        "name": "None Go Bye Farm",
        "slug": "none-go-bye-farm",
        "address": "None Go Bye Farm Shop",
        "city": "Leeds LS18 5HZ",
        "county": "",
        "postcode": "UK"
      }
    },
    {
      "type": "Feature",
      "geometry": {
        "type": "Point",
        "coordinates": [
          -2.0330949,
          53.558609
        ]
      },
      "properties": {
        "id": "farm_t8ct0e6xqz",
        "name": "Albion Farm Shop & Cafe",
        "slug": "albion-farm-shop-cafe",
        "address": "Oldham Rd",
        "city": "Saddleworth OL3 5RQ",
        "county": "",
        "postcode": "UK"
      }
    },
    {
      "type": "Feature",
      "geometry": {
        "type": "Point",
        "coordinates": [
          -1.5903246,
          53.5719987
        ]
      },
      "properties": {
        "id": "farm_05tma4ayf3",
        "name": "Cannon Hall Farm",
        "slug": "cannon-hall-farm",
        "address": "Bark House Ln",
        "city": "Barnsley S75 4AT",
        "county": "",
        "postcode": "UK"
      }
    },
    {
      "type": "Feature",
      "geometry": {
        "type": "Point",
        "coordinates": [
          -2.2324895,
          53.3619014
        ]
      },
      "properties": {
        "id": "farm_5hpyh9m1tu",
        "name": "Nixon's Farm Shop",
        "slug": "nixon-s-farm-shop",
        "address": "Outwood Farm",
        "city": "Cheadle SK8 3PS",
        "county": "",
        "postcode": "UK"
      }
    },
    {
      "type": "Feature",
      "geometry": {
        "type": "Point",
        "coordinates": [
          -2.5975268,
          53.8478816
        ]
      },
      "properties": {
        "id": "farm_0k2loyq3z6",
        "name": "Little Town Farm Shop",
        "slug": "little-town-farm-shop",
        "address": "Chipping Ln",
        "city": "Preston PR3 2TB",
        "county": "",
        "postcode": "UK"
      }
    },
    {
      "type": "Feature",
      "geometry": {
        "type": "Point",
        "coordinates": [
          -1.489035,
          53.7350931
        ]
      },
      "properties": {
        "id": "farm_ilduolawlx",
        "name": "The Rhubarb Triangle Farm Shop Limited",
        "slug": "the-rhubarb-triangle-farm-shop-limited",
        "address": "Green End Farm",
        "city": "Wakefield WF3 3QR",
        "county": "",
        "postcode": "UK"
      }
    },
    {
      "type": "Feature",
      "geometry": {
        "type": "Point",
        "coordinates": [
          -1.6532076,
          53.786182
        ]
      },
      "properties": {
        "id": "farm_ogtxgv1tmk",
        "name": "Tomlinson Farm Shop",
        "slug": "tomlinson-farm-shop",
        "address": "89 Roker Ln",
        "city": "Pudsey LS28 9NB",
        "county": "",
        "postcode": "UK"
      }
    },
    {
      "type": "Feature",
      "geometry": {
        "type": "Point",
        "coordinates": [
          -1.7158454,
          53.6585183
        ]
      },
      "properties": {
        "id": "farm_0pv1l517qg",
        "name": "Kirkheaton Farm Shop",
        "slug": "kirkheaton-farm-shop",
        "address": "135 Cockley Hill Ln",
        "city": "Huddersfield HD5 0PF",
        "county": "",
        "postcode": "UK"
      }
    },
    {
      "type": "Feature",
      "geometry": {
        "type": "Point",
        "coordinates": [
          -1.5058594,
          53.3151606
        ]
      },
      "properties": {
        "id": "farm_wyxji5m205",
        "name": "Border View Farm Shop",
        "slug": "border-view-farm-shop",
        "address": "Rod Moor Rd",
        "city": "Dronfield S18 8XL",
        "county": "",
        "postcode": "UK"
      }
    },
    {
      "type": "Feature",
      "geometry": {
        "type": "Point",
        "coordinates": [
          -2.3370312,
          53.3293804
        ]
      },
      "properties": {
        "id": "farm_hphe9hbmpa",
        "name": "Waugh Brow Farm Shop",
        "slug": "waugh-brow-farm-shop",
        "address": "Smith Ln",
        "city": "Knutsford WA16 6JZ",
        "county": "",
        "postcode": "UK"
      }
    },
    {
      "type": "Feature",
      "geometry": {
        "type": "Point",
        "coordinates": [
          -1.5469544,
          53.63801970000001
        ]
      },
      "properties": {
        "id": "farm_knuqnvht5z",
        "name": "Blacker Hall Farm Shop",
        "slug": "blacker-hall-farm-shop",
        "address": "Branch Rd",
        "city": "Wakefield WF4 3DN",
        "county": "",
        "postcode": "UK"
      }
    },
    {
      "type": "Feature",
      "geometry": {
        "type": "Point",
        "coordinates": [
          -2.1928278,
          53.3138485
        ]
      },
      "properties": {
        "id": "farm_zql73ymd99",
        "name": "Brook House Farm Shop",
        "slug": "brook-house-farm-shop",
        "address": "Brook House Farm Shop",
        "city": "Macclesfield SK10 4QY",
        "county": "",
        "postcode": "UK"
      }
    },
    {
      "type": "Feature",
      "geometry": {
        "type": "Point",
        "coordinates": [
          -1.9773379,
          53.12907879999999
        ]
      },
      "properties": {
        "id": "farm_hohhh1tokn",
        "name": "Brooklyn Farm Shop",
        "slug": "brooklyn-farm-shop",
        "address": "Brooklyn Grange Farm",
        "city": "Leek ST13 8TP",
        "county": "",
        "postcode": "UK"
      }
    },
    {
      "type": "Feature",
      "geometry": {
        "type": "Point",
        "coordinates": [
          -2.4917016,
          53.0643874
        ]
      },
      "properties": {
        "id": "farm_b1h0p7rj82",
        "name": "Cheerbrook Food Ltd",
        "slug": "cheerbrook-food-ltd",
        "address": "Cheerbrook Farm",
        "city": "Nantwich CW5 7EL",
        "county": "",
        "postcode": "UK"
      }
    },
    {
      "type": "Feature",
      "geometry": {
        "type": "Point",
        "coordinates": [
          -1.5013346,
          53.3533744
        ]
      },
      "properties": {
        "id": "farm_v7g6gfwx5h",
        "name": "Knab Farm Shop",
        "slug": "knab-farm-shop",
        "address": "78 Montrose Rd",
        "city": "Sheffield S7 2EF",
        "county": "",
        "postcode": "UK"
      }
    },
    {
      "type": "Feature",
      "geometry": {
        "type": "Point",
        "coordinates": [
          -2.2168481,
          53.3457333
        ]
      },
      "properties": {
        "id": "farm_2dhdfrldkf",
        "name": "CW Shenton Farm Shop",
        "slug": "cw-shenton-farm-shop",
        "address": "Wilmslow Rd",
        "city": "Wilmslow SK9 3EN",
        "county": "",
        "postcode": "UK"
      }
    },
    {
      "type": "Feature",
      "geometry": {
        "type": "Point",
        "coordinates": [
          -2.5728739,
          53.4503486
        ]
      },
      "properties": {
        "id": "farm_uvqeruxgec",
        "name": "Kenyon Hall Farm",
        "slug": "kenyon-hall-farm",
        "address": "Winwick Ln",
        "city": "Warrington WA3 7ED",
        "county": "",
        "postcode": "UK"
      }
    },
    {
      "type": "Feature",
      "geometry": {
        "type": "Point",
        "coordinates": [
          -2.2556359,
          53.12775079999999
        ]
      },
      "properties": {
        "id": "farm_sq0idjoebt",
        "name": "Cuttleford Farm",
        "slug": "cuttleford-farm",
        "address": "Newcastle Rd",
        "city": "Congleton CW12 4SD",
        "county": "",
        "postcode": "UK"
      }
    },
    {
      "type": "Feature",
      "geometry": {
        "type": "Point",
        "coordinates": [
          -1.4930569,
          53.47805349999999
        ]
      },
      "properties": {
        "id": "farm_rilcgibi71",
        "name": "Thorpes Farm Shop",
        "slug": "thorpes-farm-shop",
        "address": "Graves Lane Poultry Farm",
        "city": "Sheffield S35 4GR",
        "county": "",
        "postcode": "UK"
      }
    },
    {
      "type": "Feature",
      "geometry": {
        "type": "Point",
        "coordinates": [
          -1.679152,
          53.761754
        ]
      },
      "properties": {
        "id": "farm_y81gqejbau",
        "name": "Lane End Farm Shop",
        "slug": "lane-end-farm-shop",
        "address": "Lane End Farm",
        "city": "Bradford BD4 0RY",
        "county": "",
        "postcode": "UK"
      }
    },
    {
      "type": "Feature",
      "geometry": {
        "type": "Point",
        "coordinates": [
          -2.1208856,
          53.5788775
        ]
      },
      "properties": {
        "id": "farm_kyafnuobbf",
        "name": "The Narrowgate Farm shop",
        "slug": "the-narrowgate-farm-shop",
        "address": "The Narrowgate Farm Shop",
        "city": "Oldham OL2 6XU",
        "county": "",
        "postcode": "UK"
      }
    },
    {
      "type": "Feature",
      "geometry": {
        "type": "Point",
        "coordinates": [
          -2.5765323,
          53.4339664
        ]
      },
      "properties": {
        "id": "farm_x8949po22v",
        "name": "Winwick Farm Shop",
        "slug": "winwick-farm-shop",
        "address": "47 Southworth Ln",
        "city": "Warrington WA2 0RA",
        "county": "",
        "postcode": "UK"
      }
    },
    {
      "type": "Feature",
      "geometry": {
        "type": "Point",
        "coordinates": [
          -2.464599,
          53.78348140000001
        ]
      },
      "properties": {
        "id": "farm_ple50q24g9",
        "name": "Margerison's Farm Shop",
        "slug": "margerison-s-farm-shop",
        "address": "Grange Farm",
        "city": "Blackburn BB1 4AG",
        "county": "",
        "postcode": "UK"
      }
    },
    {
      "type": "Feature",
      "geometry": {
        "type": "Point",
        "coordinates": [
          -1.4903116,
          53.2325585
        ]
      },
      "properties": {
        "id": "farm_6j7vtt0ihp",
        "name": "Adam's Happy Hens",
        "slug": "adam-s-happy-hens",
        "address": "Baslow Rd",
        "city": "Chesterfield S42 7BH",
        "county": "",
        "postcode": "UK"
      }
    },
    {
      "type": "Feature",
      "geometry": {
        "type": "Point",
        "coordinates": [
          -2.9626236,
          53.53944629999999
        ]
      },
      "properties": {
        "id": "farm_xqh5j7prxv",
        "name": "Lydiate Hall Farm Shop",
        "slug": "lydiate-hall-farm-shop",
        "address": "Lydiate",
        "city": "Liverpool L31 4HD",
        "county": "",
        "postcode": "UK"
      }
    },
    {
      "type": "Feature",
      "geometry": {
        "type": "Point",
        "coordinates": [
          -2.5683679,
          53.3280267
        ]
      },
      "properties": {
        "id": "farm_b6y4imi2br",
        "name": "The Hollies Farm Shop - Lower Stretton",
        "slug": "the-hollies-farm-shop-lower-stretton",
        "address": "Northwich Rd",
        "city": "Warrington WA4 4PG",
        "county": "",
        "postcode": "UK"
      }
    },
    {
      "type": "Feature",
      "geometry": {
        "type": "Point",
        "coordinates": [
          -2.4105883,
          53.21920249999999
        ]
      },
      "properties": {
        "id": "farm_caav9kx636",
        "name": "Lowe's Farm Shop",
        "slug": "lowe-s-farm-shop",
        "address": "Moss Ln",
        "city": "Middlewich CW10 9NG",
        "county": "",
        "postcode": "UK"
      }
    },
    {
      "type": "Feature",
      "geometry": {
        "type": "Point",
        "coordinates": [
          -2.7051587,
          53.3964071
        ]
      },
      "properties": {
        "id": "farm_bdcpobsxpq",
        "name": "Bold Heath Farm shop",
        "slug": "bold-heath-farm-shop",
        "address": "29 Mill Ln",
        "city": "Widnes WA8 3UU",
        "county": "",
        "postcode": "UK"
      }
    },
    {
      "type": "Feature",
      "geometry": {
        "type": "Point",
        "coordinates": [
          -2.7497098,
          53.6960488
        ]
      },
      "properties": {
        "id": "farm_jiwdismzuy",
        "name": "Paul's Farm Shop",
        "slug": "paul-s-farm-shop",
        "address": "Dunkirk Ln",
        "city": "Leyland PR26 7SY",
        "county": "",
        "postcode": "UK"
      }
    },
    {
      "type": "Feature",
      "geometry": {
        "type": "Point",
        "coordinates": [
          -2.9629766,
          53.75359719999999
        ]
      },
      "properties": {
        "id": "farm_uxf9shxqi5",
        "name": "Pembertons Farm Shop & Dairies",
        "slug": "pembertons-farm-shop-dairies",
        "address": "Birks Farm",
        "city": "Lytham Saint Annes FY8 4NL",
        "county": "",
        "postcode": "UK"
      }
    },
    {
      "type": "Feature",
      "geometry": {
        "type": "Point",
        "coordinates": [
          -1.4312078,
          52.2571111
        ]
      },
      "properties": {
        "id": "farm_o4fkjk513d",
        "name": "Greg's Eggs",
        "slug": "greg-s-eggs",
        "address": "Ufton",
        "city": "Southam CV47 2DN",
        "county": "",
        "postcode": "UK"
      }
    },
    {
      "type": "Feature",
      "geometry": {
        "type": "Point",
        "coordinates": [
          -1.3319997,
          52.429168
        ]
      },
      "properties": {
        "id": "farm_raxw4v03uj",
        "name": "Malt Kiln Farm Shop",
        "slug": "malt-kiln-farm-shop",
        "address": "Main St",
        "city": "Rugby CV23 0PE",
        "county": "",
        "postcode": "UK"
      }
    },
    {
      "type": "Feature",
      "geometry": {
        "type": "Point",
        "coordinates": [
          -1.19188,
          52.3985791
        ]
      },
      "properties": {
        "id": "farm_0co81tufix",
        "name": "Manor Farm Shop",
        "slug": "manor-farm-shop",
        "address": "Main St",
        "city": "Lutterworth LE17 6DB",
        "county": "",
        "postcode": "UK"
      }
    },
    {
      "type": "Feature",
      "geometry": {
        "type": "Point",
        "coordinates": [
          -2.1324351,
          52.5101491
        ]
      },
      "properties": {
        "id": "farm_gffwv3gh9v",
        "name": "Little Twinnies farm",
        "slug": "little-twinnies-farm",
        "address": "Chase Rd",
        "city": "Brierley Hill DY5 4TS",
        "county": "",
        "postcode": "UK"
      }
    },
    {
      "type": "Feature",
      "geometry": {
        "type": "Point",
        "coordinates": [
          -1.3531137,
          52.0390282
        ]
      },
      "properties": {
        "id": "farm_qq8svohi5w",
        "name": "Wykham Park Farm",
        "slug": "wykham-park-farm",
        "address": "Wykham Ln",
        "city": "Banbury OX16 9UP",
        "county": "",
        "postcode": "UK"
      }
    },
    {
      "type": "Feature",
      "geometry": {
        "type": "Point",
        "coordinates": [
          -2.4341845,
          52.7280221
        ]
      },
      "properties": {
        "id": "farm_uwj6r606c1",
        "name": "Green Fields Farm Shop",
        "slug": "green-fields-farm-shop",
        "address": "Station Rd",
        "city": "Telford TF2 8JY",
        "county": "",
        "postcode": "UK"
      }
    },
    {
      "type": "Feature",
      "geometry": {
        "type": "Point",
        "coordinates": [
          -1.9053609,
          52.1835396
        ]
      },
      "properties": {
        "id": "farm_sqvl4n6oxo",
        "name": "Hillers Farm Shop",
        "slug": "hillers-farm-shop",
        "address": "Dunnington",
        "city": "Alcester B49 5PD",
        "county": "",
        "postcode": "UK"
      }
    },
    {
      "type": "Feature",
      "geometry": {
        "type": "Point",
        "coordinates": [
          -2.0081321,
          52.8055416
        ]
      },
      "properties": {
        "id": "farm_vrexip901i",
        "name": "Canalside Farm, Shop & Cafe",
        "slug": "canalside-farm-shop-cafe",
        "address": "Mill Ln",
        "city": "Stafford ST18 0RQ",
        "county": "",
        "postcode": "UK"
      }
    },
    {
      "type": "Feature",
      "geometry": {
        "type": "Point",
        "coordinates": [
          -2.5069206,
          52.1483633
        ]
      },
      "properties": {
        "id": "farm_vjw4m92r9b",
        "name": "Instone Court",
        "slug": "instone-court",
        "address": "Munderfield",
        "city": "Bromyard HR7 4JS",
        "county": "",
        "postcode": "UK"
      }
    },
    {
      "type": "Feature",
      "geometry": {
        "type": "Point",
        "coordinates": [
          -1.6636016,
          52.385056
        ]
      },
      "properties": {
        "id": "farm_nu50w9q20u",
        "name": "Oakes Farm Shop",
        "slug": "oakes-farm-shop",
        "address": "Balsall Street",
        "city": "Coventry CV7 7AQ",
        "county": "",
        "postcode": "UK"
      }
    },
    {
      "type": "Feature",
      "geometry": {
        "type": "Point",
        "coordinates": [
          -1.6950381,
          52.2280218
        ]
      },
      "properties": {
        "id": "farm_or8uip87lu",
        "name": "Cobbs at Stratford",
        "slug": "cobbs-at-stratford",
        "address": "King's Ln",
        "city": "Stratford-upon-Avon CV37 0QA",
        "county": "",
        "postcode": "UK"
      }
    },
    {
      "type": "Feature",
      "geometry": {
        "type": "Point",
        "coordinates": [
          -1.8869279,
          52.3731638
        ]
      },
      "properties": {
        "id": "farm_7wc2mejdus",
        "name": "Becketts Farm",
        "slug": "becketts-farm",
        "address": "Heath Farm",
        "city": "Birmingham B47 6AJ",
        "county": "",
        "postcode": "UK"
      }
    },
    {
      "type": "Feature",
      "geometry": {
        "type": "Point",
        "coordinates": [
          -1.7341839,
          52.0533679
        ]
      },
      "properties": {
        "id": "farm_iuoig2pndu",
        "name": "Vegetable Matters Farm Shop and Cafe",
        "slug": "vegetable-matters-farm-shop-and-cafe",
        "address": "May Ln",
        "city": "Chipping Campden GL55 6NJ",
        "county": "",
        "postcode": "UK"
      }
    },
    {
      "type": "Feature",
      "geometry": {
        "type": "Point",
        "coordinates": [
          -2.189042,
          52.491414
        ]
      },
      "properties": {
        "id": "farm_6znldtlh8r",
        "name": "Roberts Farm Shop",
        "slug": "roberts-farm-shop",
        "address": "Ashwoodfield House Farm",
        "city": "Kingswinford DY6 0AA",
        "county": "",
        "postcode": "UK"
      }
    },
    {
      "type": "Feature",
      "geometry": {
        "type": "Point",
        "coordinates": [
          -1.7208846,
          52.541023
        ]
      },
      "properties": {
        "id": "farm_92yohmbzdc",
        "name": "A M Cooper & Sons, Mullensgrove Farm Shop",
        "slug": "a-m-cooper-sons-mullensgrove-farm-shop",
        "address": "Mullensgrove Farm",
        "city": "Sutton Coldfield B76 0DF",
        "county": "",
        "postcode": "UK"
      }
    },
    {
      "type": "Feature",
      "geometry": {
        "type": "Point",
        "coordinates": [
          -1.9287378,
          52.1395811
        ]
      },
      "properties": {
        "id": "farm_1hhpr7bqlh",
        "name": "Ellenden Farm Shop",
        "slug": "ellenden-farm-shop",
        "address": "Evesham Rd",
        "city": "Evesham WR11 8LU",
        "county": "",
        "postcode": "UK"
      }
    },
    {
      "type": "Feature",
      "geometry": {
        "type": "Point",
        "coordinates": [
          -1.566426,
          52.604311
        ]
      },
      "properties": {
        "id": "farm_16hrpe40cr",
        "name": "The Smithy Farm Shop Ltd",
        "slug": "the-smithy-farm-shop-ltd",
        "address": "Warton Ln",
        "city": "Atherstone CV9 3DU",
        "county": "",
        "postcode": "UK"
      }
    },
    {
      "type": "Feature",
      "geometry": {
        "type": "Point",
        "coordinates": [
          -1.4496855,
          52.301367
        ]
      },
      "properties": {
        "id": "farm_5daatn5589",
        "name": "Hilltop Farm",
        "slug": "hilltop-farm",
        "address": "Fosse Wy.",
        "city": "Leamington Spa CV33 9EL",
        "county": "",
        "postcode": "UK"
      }
    },
    {
      "type": "Feature",
      "geometry": {
        "type": "Point",
        "coordinates": [
          -2.3961702,
          52.5947409
        ]
      },
      "properties": {
        "id": "farm_j34d6pmkj8",
        "name": "Apley Farm Shop, Food Hall, Kitchen Cafe & Playbarn",
        "slug": "apley-farm-shop-food-hall-kitchen-cafe-playbarn",
        "address": "Stockton",
        "city": "Shifnal TF11 9EF",
        "county": "",
        "postcode": "UK"
      }
    },
    {
      "type": "Feature",
      "geometry": {
        "type": "Point",
        "coordinates": [
          -2.2524759,
          52.2512974
        ]
      },
      "properties": {
        "id": "farm_bzejwq41mq",
        "name": "Top Barn Farm Shop",
        "slug": "top-barn-farm-shop",
        "address": "Top Barn Farm",
        "city": "Worcester WR6 6NH",
        "county": "",
        "postcode": "UK"
      }
    },
    {
      "type": "Feature",
      "geometry": {
        "type": "Point",
        "coordinates": [
          -1.739217,
          52.631224
        ]
      },
      "properties": {
        "id": "farm_jf2jp90xa9",
        "name": "BODNETTS FARM SHOP",
        "slug": "bodnetts-farm-shop",
        "address": "Bodnetts Farm",
        "city": "Tamworth B78 3AU",
        "county": "",
        "postcode": "UK"
      }
    },
    {
      "type": "Feature",
      "geometry": {
        "type": "Point",
        "coordinates": [
          -1.8953759,
          52.0649429
        ]
      },
      "properties": {
        "id": "farm_6cl35xlidr",
        "name": "Wayside Farm Shop and Tearoom",
        "slug": "wayside-farm-shop-and-tearoom",
        "address": "50 Pitchers Hill",
        "city": "Evesham WR11 7RT",
        "county": "",
        "postcode": "UK"
      }
    },
    {
      "type": "Feature",
      "geometry": {
        "type": "Point",
        "coordinates": [
          -1.6139229,
          52.6634963
        ]
      },
      "properties": {
        "id": "farm_3nc41mljrw",
        "name": "The Four Shires Farm Shop",
        "slug": "the-four-shires-farm-shop",
        "address": "The Green",
        "city": "Tamworth B79 0LB",
        "county": "",
        "postcode": "UK"
      }
    },
    {
      "type": "Feature",
      "geometry": {
        "type": "Point",
        "coordinates": [
          -2.4119836,
          52.6875497
        ]
      },
      "properties": {
        "id": "farm_upb91vlma8",
        "name": "Green Fields At Priorslee",
        "slug": "green-fields-at-priorslee",
        "address": "Lakeside Plant Centre Off",
        "city": "Telford TF2 9UR",
        "county": "",
        "postcode": "UK"
      }
    },
    {
      "type": "Feature",
      "geometry": {
        "type": "Point",
        "coordinates": [
          -2.2327093,
          52.0647265
        ]
      },
      "properties": {
        "id": "farm_r4g6zrdc8z",
        "name": "Clive's Fruit Farm",
        "slug": "clive-s-fruit-farm",
        "address": "Willingsworth",
        "city": "Worcester WR8 0SA",
        "county": "",
        "postcode": "UK"
      }
    },
    {
      "type": "Feature",
      "geometry": {
        "type": "Point",
        "coordinates": [
          -2.1672122,
          52.3893283
        ]
      },
      "properties": {
        "id": "farm_zyi2cvs6yp",
        "name": "Stanleys Farm Shop & Pick Your Own",
        "slug": "stanleys-farm-shop-pick-your-own",
        "address": "Fishers Castle Farm",
        "city": "Kidderminster DY10 4NF",
        "county": "",
        "postcode": "UK"
      }
    },
    {
      "type": "Feature",
      "geometry": {
        "type": "Point",
        "coordinates": [
          -2.3169365,
          52.3764444
        ]
      },
      "properties": {
        "id": "farm_ezladulx0d",
        "name": "Bewdley Farm Shop",
        "slug": "bewdley-farm-shop",
        "address": "Dog Ln",
        "city": "Bewdley DY12 2EF",
        "county": "",
        "postcode": "UK"
      }
    },
    {
      "type": "Feature",
      "geometry": {
        "type": "Point",
        "coordinates": [
          -1.7717241,
          52.1006513
        ]
      },
      "properties": {
        "id": "farm_du9u96b67j",
        "name": "Pages Farm Shop",
        "slug": "pages-farm-shop",
        "address": "Stratford Rd",
        "city": "Chipping Campden GL55 6SU",
        "county": "",
        "postcode": "UK"
      }
    },
    {
      "type": "Feature",
      "geometry": {
        "type": "Point",
        "coordinates": [
          -2.2642384,
          52.2664412
        ]
      },
      "properties": {
        "id": "farm_r9cqrjasuo",
        "name": "Broomfield\u2019s of Holt",
        "slug": "broomfields-of-holt",
        "address": "School Plantation",
        "city": "Worcester WR6 6NR",
        "county": "",
        "postcode": "UK"
      }
    },
    {
      "type": "Feature",
      "geometry": {
        "type": "Point",
        "coordinates": [
          -1.8165572,
          52.7055991
        ]
      },
      "properties": {
        "id": "farm_vuxsap0vdk",
        "name": "Curborough Hall Farm Countryside Centre",
        "slug": "curborough-hall-farm-countryside-centre",
        "address": "Watery Ln",
        "city": "Lichfield WS13 8ES",
        "county": "",
        "postcode": "UK"
      }
    },
    {
      "type": "Feature",
      "geometry": {
        "type": "Point",
        "coordinates": [
          -1.4305802,
          52.5293786
        ]
      },
      "properties": {
        "id": "farm_4sywyzf1xq",
        "name": "Poplars Farm Shop",
        "slug": "poplars-farm-shop",
        "address": "Poplars Farm",
        "city": "Nuneaton CV11 6JG",
        "county": "",
        "postcode": "UK"
      }
    },
    {
      "type": "Feature",
      "geometry": {
        "type": "Point",
        "coordinates": [
          -2.322531,
          52.564909
        ]
      },
      "properties": {
        "id": "farm_e4kuse5dcv",
        "name": "CLEARVIEW FARM SHOP",
        "slug": "clearview-farm-shop",
        "address": "B4176",
        "city": "Wolverhampton WV15 5NZ",
        "county": "",
        "postcode": "UK"
      }
    },
    {
      "type": "Feature",
      "geometry": {
        "type": "Point",
        "coordinates": [
          -2.275083,
          52.180007
        ]
      },
      "properties": {
        "id": "farm_svfqf5h4fg",
        "name": "Roots Family Farm Shop",
        "slug": "roots-family-farm-shop",
        "address": "Bransford Rd",
        "city": "Worcester WR2 5TD",
        "county": "",
        "postcode": "UK"
      }
    },
    {
      "type": "Feature",
      "geometry": {
        "type": "Point",
        "coordinates": [
          -1.8165268,
          52.7056045
        ]
      },
      "properties": {
        "id": "farm_bp74qowlzg",
        "name": "Bradbury's farm shop & Butchery",
        "slug": "bradbury-s-farm-shop-butchery",
        "address": "Curborough Countryside Centre",
        "city": "Lichfield WS13 8ES",
        "county": "",
        "postcode": "UK"
      }
    },
    {
      "type": "Feature",
      "geometry": {
        "type": "Point",
        "coordinates": [
          -1.9672177,
          52.0876381
        ]
      },
      "properties": {
        "id": "farm_3nvr7kcufa",
        "name": "Hampton Farm Shop",
        "slug": "hampton-farm-shop",
        "address": "Pershore Rd",
        "city": "Evesham WR11 2NB",
        "county": "",
        "postcode": "UK"
      }
    },
    {
      "type": "Feature",
      "geometry": {
        "type": "Point",
        "coordinates": [
          -1.3803746,
          52.5819758
        ]
      },
      "properties": {
        "id": "farm_l2k89i85li",
        "name": "Bradshaw Farm & Shop",
        "slug": "bradshaw-farm-shop",
        "address": "Dadlington Ln",
        "city": "Nuneaton LE9 8JL",
        "county": "",
        "postcode": "UK"
      }
    },
    {
      "type": "Feature",
      "geometry": {
        "type": "Point",
        "coordinates": [
          -2.0156255,
          52.100483
        ]
      },
      "properties": {
        "id": "farm_ucnun6n9ee",
        "name": "Clive's Of Cropthorne",
        "slug": "clive-s-of-cropthorne",
        "address": "Clive's Of Cropthorne",
        "city": "Pershore WR10 3NE",
        "county": "",
        "postcode": "UK"
      }
    },
    {
      "type": "Feature",
      "geometry": {
        "type": "Point",
        "coordinates": [
          -2.2272,
          52.2279595
        ]
      },
      "properties": {
        "id": "farm_6gs0x3rvo4",
        "name": "Gwillams Farm Shop",
        "slug": "gwillams-farm-shop",
        "address": "Ombersley Rd",
        "city": "Worcester WR3 7RH",
        "county": "",
        "postcode": "UK"
      }
    },
    {
      "type": "Feature",
      "geometry": {
        "type": "Point",
        "coordinates": [
          -2.06904,
          52.632127
        ]
      },
      "properties": {
        "id": "farm_oep5lihl64",
        "name": "Essington Farm",
        "slug": "essington-farm",
        "address": "Bognop Rd",
        "city": "Wolverhampton WV11 2AZ",
        "county": "",
        "postcode": "UK"
      }
    },
    {
      "type": "Feature",
      "geometry": {
        "type": "Point",
        "coordinates": [
          -1.9333771,
          52.5855031
        ]
      },
      "properties": {
        "id": "farm_ra5qmi0lhw",
        "name": "Hayhead Farm Shop",
        "slug": "hayhead-farm-shop",
        "address": "Hayhead Farm",
        "city": "Walsall WS4 2JT",
        "county": "",
        "postcode": "UK"
      }
    },
    {
      "type": "Feature",
      "geometry": {
        "type": "Point",
        "coordinates": [
          -1.3857331,
          52.6495866
        ]
      },
      "properties": {
        "id": "farm_g1shax2f82",
        "name": "T A Ingham & Sons",
        "slug": "t-a-ingham-sons",
        "address": "Gnarley Farm",
        "city": "Nuneaton CV13 0HP",
        "county": "",
        "postcode": "UK"
      }
    },
    {
      "type": "Feature",
      "geometry": {
        "type": "Point",
        "coordinates": [
          -1.2708325,
          52.732172
        ]
      },
      "properties": {
        "id": "farm_d4oak4vwav",
        "name": "Charnwood Forest Farm",
        "slug": "charnwood-forest-farm",
        "address": "Charley Rd",
        "city": "Loughborough LE12 9XJ",
        "county": "",
        "postcode": "UK"
      }
    },
    {
      "type": "Feature",
      "geometry": {
        "type": "Point",
        "coordinates": [
          -1.955613,
          52.61929490000001
        ]
      },
      "properties": {
        "id": "farm_j1m677fhse",
        "name": "School Farm Shop",
        "slug": "school-farm-shop",
        "address": "Mill Rd",
        "city": "Walsall WS4 1BT",
        "county": "",
        "postcode": "UK"
      }
    },
    {
      "type": "Feature",
      "geometry": {
        "type": "Point",
        "coordinates": [
          -1.9166268,
          52.5711852
        ]
      },
      "properties": {
        "id": "farm_z7d1folhew",
        "name": "Beacon Farm",
        "slug": "beacon-farm",
        "address": "Shop Access",
        "city": "Walsall WS9 0QN",
        "county": "",
        "postcode": "UK"
      }
    },
    {
      "type": "Feature",
      "geometry": {
        "type": "Point",
        "coordinates": [
          -2.2480861,
          52.32214
        ]
      },
      "properties": {
        "id": "farm_a76dko3x76",
        "name": "Bell's Farm Shop & Pick Your Own",
        "slug": "bell-s-farm-shop-pick-your-own",
        "address": "Chadwick Bank",
        "city": "Stourport-on-Severn DY13 9SA",
        "county": "",
        "postcode": "UK"
      }
    },
    {
      "type": "Feature",
      "geometry": {
        "type": "Point",
        "coordinates": [
          -1.9594444,
          52.1134111
        ]
      },
      "properties": {
        "id": "farm_2t7dq7a3ub",
        "name": "Chadbury Farm Shop & Caf\u00e9",
        "slug": "chadbury-farm-shop-cafe",
        "address": "Worcester Rd",
        "city": "Evesham WR11 4TD",
        "county": "",
        "postcode": "UK"
      }
    },
    {
      "type": "Feature",
      "geometry": {
        "type": "Point",
        "coordinates": [
          -1.6214983,
          52.5123066
        ]
      },
      "properties": {
        "id": "farm_v13219ihbr",
        "name": "The Farm shop at Hoar Park",
        "slug": "the-farm-shop-at-hoar-park",
        "address": "B4114",
        "city": "Nuneaton CV10 0QU",
        "county": "",
        "postcode": "UK"
      }
    },
    {
      "type": "Feature",
      "geometry": {
        "type": "Point",
        "coordinates": [
          -1.4318832,
          52.8335881
        ]
      },
      "properties": {
        "id": "farm_8v0f21rdcf",
        "name": "Tori & Ben's Farm Shop",
        "slug": "tori-ben-s-farm-shop",
        "address": "Kings Newton Lane",
        "city": "Derby DE73 8DD",
        "county": "",
        "postcode": "UK"
      }
    },
    {
      "type": "Feature",
      "geometry": {
        "type": "Point",
        "coordinates": [
          -1.4264679,
          52.5713884
        ]
      },
      "properties": {
        "id": "farm_d6n61gk4xg",
        "name": "Tomlinson's Farm Shop",
        "slug": "tomlinson-s-farm-shop",
        "address": "Scrivener House",
        "city": "Nuneaton CV13 6EU",
        "county": "",
        "postcode": "UK"
      }
    },
    {
      "type": "Feature",
      "geometry": {
        "type": "Point",
        "coordinates": [
          -1.8898122,
          52.5927313
        ]
      },
      "properties": {
        "id": "farm_kh6xgvxafx",
        "name": "Planters Pacific Garden Centre",
        "slug": "planters-pacific-garden-centre",
        "address": "Chester Rd",
        "city": "Walsall WS9 0PH",
        "county": "",
        "postcode": "UK"
      }
    },
    {
      "type": "Feature",
      "geometry": {
        "type": "Point",
        "coordinates": [
          -1.523551,
          52.3394039
        ]
      },
      "properties": {
        "id": "farm_gh88ovszrd",
        "name": "Farmers Fayre",
        "slug": "farmers-fayre",
        "address": "National Agricultural Centre",
        "city": "Kenilworth CV8 2LG",
        "county": "",
        "postcode": "UK"
      }
    },
    {
      "type": "Feature",
      "geometry": {
        "type": "Point",
        "coordinates": [
          -2.3607151,
          52.48914329999999
        ]
      },
      "properties": {
        "id": "farm_bxzfbzmtan",
        "name": "Quatt Farm Shop & Cafe",
        "slug": "quatt-farm-shop-cafe",
        "address": "Kidderminster Rd",
        "city": "Bridgnorth WV15 6HB",
        "county": "",
        "postcode": "UK"
      }
    },
    {
      "type": "Feature",
      "geometry": {
        "type": "Point",
        "coordinates": [
          -2.132356,
          52.080786
        ]
      },
      "properties": {
        "id": "farm_oyp830vyfs",
        "name": "Revills Farm Shop",
        "slug": "revills-farm-shop",
        "address": "Bourne Rd",
        "city": "Worcester WR8 9BS",
        "county": "",
        "postcode": "UK"
      }
    },
    {
      "type": "Feature",
      "geometry": {
        "type": "Point",
        "coordinates": [
          -2.3235907,
          52.5560667
        ]
      },
      "properties": {
        "id": "farm_aaj0o98bly",
        "name": "Grange Farm Shop Hilton",
        "slug": "grange-farm-shop-hilton",
        "address": "Grange Farm",
        "city": "Bridgnorth WV15 5PD",
        "county": "",
        "postcode": "UK"
      }
    },
    {
      "type": "Feature",
      "geometry": {
        "type": "Point",
        "coordinates": [
          -2.1957109,
          52.5083288
        ]
      },
      "properties": {
        "id": "farm_a6gzjboksk",
        "name": "Hinksford Farm Shop",
        "slug": "hinksford-farm-shop",
        "address": "Hinksford Ln",
        "city": "Dudley DY6 0BH",
        "county": "",
        "postcode": "UK"
      }
    },
    {
      "type": "Feature",
      "geometry": {
        "type": "Point",
        "coordinates": [
          -2.4896599,
          52.05362239999999
        ]
      },
      "properties": {
        "id": "farm_tocmsik73c",
        "name": "The Nest at Little Verzons farm",
        "slug": "the-nest-at-little-verzons-farm",
        "address": "Little Verzons Farm",
        "city": "Ledbury HR8 2PZ",
        "county": "",
        "postcode": "UK"
      }
    },
    {
      "type": "Feature",
      "geometry": {
        "type": "Point",
        "coordinates": [
          -2.1754351,
          52.3206008
        ]
      },
      "properties": {
        "id": "farm_rta4di2185",
        "name": "Bannutt Tree Farm Shop",
        "slug": "bannutt-tree-farm-shop",
        "address": "Bannuttree Farm",
        "city": "Droitwich WR9 0NF",
        "county": "",
        "postcode": "UK"
      }
    },
    {
      "type": "Feature",
      "geometry": {
        "type": "Point",
        "coordinates": [
          -2.053857,
          52.4212722
        ]
      },
      "properties": {
        "id": "farm_ezsb3emxns",
        "name": "Horsepool Farm Shop",
        "slug": "horsepool-farm-shop",
        "address": "164 Bromsgrove Rd",
        "city": "Halesowen B62 0JX",
        "county": "",
        "postcode": "UK"
      }
    },
    {
      "type": "Feature",
      "geometry": {
        "type": "Point",
        "coordinates": [
          -1.747644,
          52.6871675
        ]
      },
      "properties": {
        "id": "farm_2q1xnuedtq",
        "name": "Woodhouse Farm and Garden CIC",
        "slug": "woodhouse-farm-and-garden-cic",
        "address": "Woodhouse Farm",
        "city": "Lichfield WS13 8QG",
        "county": "",
        "postcode": "UK"
      }
    },
    {
      "type": "Feature",
      "geometry": {
        "type": "Point",
        "coordinates": [
          -2.1587877,
          52.3554866
        ]
      },
      "properties": {
        "id": "farm_zezp8w6ja9",
        "name": "Rowberry's Farm Shop",
        "slug": "rowberry-s-farm-shop",
        "address": "Kidderminster DY10 4QN",
        "city": "UK",
        "county": "",
        "postcode": "UK"
      }
    },
    {
      "type": "Feature",
      "geometry": {
        "type": "Point",
        "coordinates": [
          -0.9009626999999999,
          53.5685803
        ]
      },
      "properties": {
        "id": "farm_2tewo3x4pg",
        "name": "The Willows Farm Shop",
        "slug": "the-willows-farm-shop",
        "address": "Low Levels Bank",
        "city": "Doncaster DN8 5TG",
        "county": "",
        "postcode": "UK"
      }
    },
    {
      "type": "Feature",
      "geometry": {
        "type": "Point",
        "coordinates": [
          -2.2809513,
          53.4034696
        ]
      },
      "properties": {
        "id": "farm_uud6ov66im",
        "name": "Wythenshawe Community Farm & Shop",
        "slug": "wythenshawe-community-farm-shop",
        "address": "Wythenshawe Park and Gardens",
        "city": "Manchester M23 0AB",
        "county": "",
        "postcode": "UK"
      }
    },
    {
      "type": "Feature",
      "geometry": {
        "type": "Point",
        "coordinates": [
          -2.153024,
          54.032306
        ]
      },
      "properties": {
        "id": "farm_dlymcar42i",
        "name": "Town End Farm Shop",
        "slug": "town-end-farm-shop",
        "address": "Airton",
        "city": "Skipton BD23 4BE",
        "county": "",
        "postcode": "UK"
      }
    },
    {
      "type": "Feature",
      "geometry": {
        "type": "Point",
        "coordinates": [
          -1.3523332,
          53.604366
        ]
      },
      "properties": {
        "id": "farm_en8m78t50b",
        "name": "Moortop Farm Shop",
        "slug": "moortop-farm-shop",
        "address": "Moortop Farm/Southmoor Rd",
        "city": "Pontefract WF9 4NA",
        "county": "",
        "postcode": "UK"
      }
    },
    {
      "type": "Feature",
      "geometry": {
        "type": "Point",
        "coordinates": [
          -2.0073801,
          53.4378178
        ]
      },
      "properties": {
        "id": "farm_99z474pb0f",
        "name": "Lymefield Garden Centre, Farm Shop and Tea Room",
        "slug": "lymefield-garden-centre-farm-shop-and-tea-room",
        "address": "Lymefield",
        "city": "Hyde SK14 6AG",
        "county": "",
        "postcode": "UK"
      }
    },
    {
      "type": "Feature",
      "geometry": {
        "type": "Point",
        "coordinates": [
          -2.0412258,
          53.96547409999999
        ]
      },
      "properties": {
        "id": "farm_bt1h2egrnj",
        "name": "Robertshaws",
        "slug": "robertshaws",
        "address": "21 Gargrave Rd",
        "city": "Skipton BD23 1UD",
        "county": "",
        "postcode": "UK"
      }
    },
    {
      "type": "Feature",
      "geometry": {
        "type": "Point",
        "coordinates": [
          -1.2085283,
          53.5358888
        ]
      },
      "properties": {
        "id": "farm_wc83li5ijt",
        "name": "Marr Grange Farm Shop & Tearooms",
        "slug": "marr-grange-farm-shop-tearooms",
        "address": "Marr Grange Ln",
        "city": "Doncaster DN5 7AS",
        "county": "",
        "postcode": "UK"
      }
    },
    {
      "type": "Feature",
      "geometry": {
        "type": "Point",
        "coordinates": [
          -1.3795979,
          53.7255201
        ]
      },
      "properties": {
        "id": "farm_gdf1m6jymh",
        "name": "Methley Bridge Farm Shop",
        "slug": "methley-bridge-farm-shop",
        "address": "Farm Methley Rd",
        "city": "Castleford WF10 1QR",
        "county": "",
        "postcode": "UK"
      }
    },
    {
      "type": "Feature",
      "geometry": {
        "type": "Point",
        "coordinates": [
          -1.9907644,
          53.6956907
        ]
      },
      "properties": {
        "id": "farm_4qseeds7qm",
        "name": "Craggies Farm Shop",
        "slug": "craggies-farm-shop",
        "address": "Craggies Farm Shop Craggs",
        "city": "Hebden Bridge HX7 5TT",
        "county": "",
        "postcode": "UK"
      }
    },
    {
      "type": "Feature",
      "geometry": {
        "type": "Point",
        "coordinates": [
          -2.1358132,
          53.36915219999999
        ]
      },
      "properties": {
        "id": "farm_uu0operdk5",
        "name": "Norbury Farm Shop",
        "slug": "norbury-farm-shop",
        "address": "Jacksons Ln",
        "city": "Stockport SK7 5JS",
        "county": "",
        "postcode": "UK"
      }
    },
    {
      "type": "Feature",
      "geometry": {
        "type": "Point",
        "coordinates": [
          -1.0691917,
          53.5746632
        ]
      },
      "properties": {
        "id": "farm_so5fqi38ja",
        "name": "The Farm Shop",
        "slug": "the-farm-shop",
        "address": "High St",
        "city": "Doncaster DN3 1DU",
        "county": "",
        "postcode": "UK"
      }
    },
    {
      "type": "Feature",
      "geometry": {
        "type": "Point",
        "coordinates": [
          -1.620461,
          53.9135735
        ]
      },
      "properties": {
        "id": "farm_ib2tyrog3n",
        "name": "Leathley Farm Shop and Cafe",
        "slug": "leathley-farm-shop-and-cafe",
        "address": "Harrogate Rd",
        "city": "Otley LS21 2PS",
        "county": "",
        "postcode": "UK"
      }
    },
    {
      "type": "Feature",
      "geometry": {
        "type": "Point",
        "coordinates": [
          -2.0199678,
          53.4621832
        ]
      },
      "properties": {
        "id": "farm_8fvb0br9ta",
        "name": "Old mill farm shop",
        "slug": "old-mill-farm-shop",
        "address": "Edge Ln",
        "city": "Hyde SK14 6SE",
        "county": "",
        "postcode": "UK"
      }
    },
    {
      "type": "Feature",
      "geometry": {
        "type": "Point",
        "coordinates": [
          -0.9376928999999998,
          53.9904443
        ]
      },
      "properties": {
        "id": "farm_4yyqj2assu",
        "name": "The Balloon Tree Farmshop & Cafe",
        "slug": "the-balloon-tree-farmshop-cafe",
        "address": "Stamford Bridge Rd",
        "city": "York YO41 1NB",
        "county": "",
        "postcode": "UK"
      }
    },
    {
      "type": "Feature",
      "geometry": {
        "type": "Point",
        "coordinates": [
          -1.5002007,
          53.9828845
        ]
      },
      "properties": {
        "id": "farm_jj9usm4dxu",
        "name": "Fodder - Great Yorkshire Food Hall",
        "slug": "fodder-great-yorkshire-food-hall",
        "address": "Great Yorkshire Showground",
        "city": "Harrogate HG2 8NZ",
        "county": "",
        "postcode": "UK"
      }
    },
    {
      "type": "Feature",
      "geometry": {
        "type": "Point",
        "coordinates": [
          -1.7426353,
          53.348919
        ]
      },
      "properties": {
        "id": "farm_g42b040ved",
        "name": "Watson's Farm Shop",
        "slug": "watson-s-farm-shop",
        "address": "Hope",
        "city": "Hope Valley S33 6ZF",
        "county": "",
        "postcode": "UK"
      }
    },
    {
      "type": "Feature",
      "geometry": {
        "type": "Point",
        "coordinates": [
          -1.3355038,
          53.6801904
        ]
      },
      "properties": {
        "id": "farm_au1gzpi18j",
        "name": "Farmer Copleys",
        "slug": "farmer-copleys",
        "address": "Ravensknowle Farm",
        "city": "Pontefract WF7 5AF",
        "county": "",
        "postcode": "UK"
      }
    },
    {
      "type": "Feature",
      "geometry": {
        "type": "Point",
        "coordinates": [
          -1.6181778,
          53.5450723
        ]
      },
      "properties": {
        "id": "farm_konbprjowp",
        "name": "Milk from the Hill's milk, milkshake, ice cream and coffee vending shed",
        "slug": "milk-from-the-hill-s-milk-milkshake-ice-cream-and-coffee-vending-shed",
        "address": "Kidfield",
        "city": "Barnsley S36 7JX",
        "county": "",
        "postcode": "UK"
      }
    },
    {
      "type": "Feature",
      "geometry": {
        "type": "Point",
        "coordinates": [
          -1.2854,
          53.398428
        ]
      },
      "properties": {
        "id": "farm_gh6mpn7ycl",
        "name": "Lawns Farm Shop",
        "slug": "lawns-farm-shop",
        "address": "Lawns Farm",
        "city": "Rotherham S66 9JH",
        "county": "",
        "postcode": "UK"
      }
    },
    {
      "type": "Feature",
      "geometry": {
        "type": "Point",
        "coordinates": [
          -0.9532974,
          53.48983
        ]
      },
      "properties": {
        "id": "farm_ow9e3mx87j",
        "name": "McCallums Farm Shop",
        "slug": "mccallums-farm-shop",
        "address": "Bank End Rd",
        "city": "Doncaster DN9 3NT",
        "county": "",
        "postcode": "UK"
      }
    },
    {
      "type": "Feature",
      "geometry": {
        "type": "Point",
        "coordinates": [
          -1.6321805,
          53.714548
        ]
      },
      "properties": {
        "id": "farm_rk35v46qkb",
        "name": "Creamy Cow",
        "slug": "creamy-cow",
        "address": "Plaza",
        "city": "Batley WF17 5DR",
        "county": "",
        "postcode": "UK"
      }
    },
    {
      "type": "Feature",
      "geometry": {
        "type": "Point",
        "coordinates": [
          -1.1841403,
          53.6503386
        ]
      },
      "properties": {
        "id": "farm_t5pfl8q8gr",
        "name": "The Range",
        "slug": "the-range",
        "address": "Stubbs Walden",
        "city": "Doncaster DN6 9BT",
        "county": "",
        "postcode": "UK"
      }
    },
    {
      "type": "Feature",
      "geometry": {
        "type": "Point",
        "coordinates": [
          -0.8335549999999999,
          53.552585
        ]
      },
      "properties": {
        "id": "farm_zx1376cck0",
        "name": "Medley Farm Shop",
        "slug": "medley-farm-shop",
        "address": "The Granary",
        "city": "Doncaster DN9 1PG",
        "county": "",
        "postcode": "UK"
      }
    },
    {
      "type": "Feature",
      "geometry": {
        "type": "Point",
        "coordinates": [
          -2.2739241,
          53.9126562
        ]
      },
      "properties": {
        "id": "farm_uin1sa6k40",
        "name": "Gazegill Organics Farm Shop",
        "slug": "gazegill-organics-farm-shop",
        "address": "Lower Gazegill Farm",
        "city": "Clitheroe BB7 4EE",
        "county": "",
        "postcode": "UK"
      }
    },
    {
      "type": "Feature",
      "geometry": {
        "type": "Point",
        "coordinates": [
          -1.7005888,
          53.7459821
        ]
      },
      "properties": {
        "id": "farm_gz5klzgrlg",
        "name": "Blue Hills Farm",
        "slug": "blue-hills-farm",
        "address": "Birkenshaw",
        "city": "Bradford BD11 2DU",
        "county": "",
        "postcode": "UK"
      }
    },
    {
      "type": "Feature",
      "geometry": {
        "type": "Point",
        "coordinates": [
          -1.6279824,
          53.8671202
        ]
      },
      "properties": {
        "id": "farm_s2r7wn7dwn",
        "name": "Crag House Farm",
        "slug": "crag-house-farm",
        "address": "Otley Old Rd",
        "city": "Leeds LS16 7NH",
        "county": "",
        "postcode": "UK"
      }
    },
    {
      "type": "Feature",
      "geometry": {
        "type": "Point",
        "coordinates": [
          -1.8131661,
          53.82604079999999
        ]
      },
      "properties": {
        "id": "farm_lotrw68c61",
        "name": "Ludbrook's Farm Shop",
        "slug": "ludbrook-s-farm-shop",
        "address": "Cottingley Cliffe Rd",
        "city": "Bingley BD16 1UW",
        "county": "",
        "postcode": "UK"
      }
    },
    {
      "type": "Feature",
      "geometry": {
        "type": "Point",
        "coordinates": [
          -1.0172696,
          54.2497655
        ]
      },
      "properties": {
        "id": "farm_d23965mtpp",
        "name": "Beadlam Grange Farmshop and Tea Room",
        "slug": "beadlam-grange-farmshop-and-tea-room",
        "address": "Beadlam Grange Farmshop",
        "city": "York YO62 7TD",
        "county": "",
        "postcode": "UK"
      }
    },
    {
      "type": "Feature",
      "geometry": {
        "type": "Point",
        "coordinates": [
          -1.8694931,
          53.9397354
        ]
      },
      "properties": {
        "id": "farm_pi8gera41e",
        "name": "The Joyful Deli",
        "slug": "the-joyful-deli",
        "address": "Ilkley Rd",
        "city": "Ilkley LS29 0RR",
        "county": "",
        "postcode": "UK"
      }
    },
    {
      "type": "Feature",
      "geometry": {
        "type": "Point",
        "coordinates": [
          -2.0046479,
          53.5355144
        ]
      },
      "properties": {
        "id": "farm_neor0dr1l9",
        "name": "Harrop's Farm Shop",
        "slug": "harrop-s-farm-shop",
        "address": "135 Chew Valley Rd",
        "city": "Oldham OL3 7JN",
        "county": "",
        "postcode": "UK"
      }
    },
    {
      "type": "Feature",
      "geometry": {
        "type": "Point",
        "coordinates": [
          -2.0345499,
          54.03784169999999
        ]
      },
      "properties": {
        "id": "farm_lf5btjp9xa",
        "name": "Jacksons Of Cracoe",
        "slug": "jacksons-of-cracoe",
        "address": "The Farm Shop",
        "city": "Skipton BD23 6LB",
        "county": "",
        "postcode": "UK"
      }
    },
    {
      "type": "Feature",
      "geometry": {
        "type": "Point",
        "coordinates": [
          -1.0537543,
          53.9148498
        ]
      },
      "properties": {
        "id": "farm_npnvj2cjvs",
        "name": "Lodge Cottage Farm Shop",
        "slug": "lodge-cottage-farm-shop",
        "address": "Lodge cottage",
        "city": "York YO19 4SJ",
        "county": "",
        "postcode": "UK"
      }
    },
    {
      "type": "Feature",
      "geometry": {
        "type": "Point",
        "coordinates": [
          -1.5376532,
          53.4902448
        ]
      },
      "properties": {
        "id": "farm_40irznlyi0",
        "name": "Wortley Farm Shop",
        "slug": "wortley-farm-shop",
        "address": "Park Ave",
        "city": "Sheffield S35 7DB",
        "county": "",
        "postcode": "UK"
      }
    },
    {
      "type": "Feature",
      "geometry": {
        "type": "Point",
        "coordinates": [
          -1.350555,
          53.779757
        ]
      },
      "properties": {
        "id": "farm_wpdjpsatzm",
        "name": "Peckfield Farm Produce",
        "slug": "peckfield-farm-produce",
        "address": "Selby Road",
        "city": "Leeds LS25 4BD",
        "county": "",
        "postcode": "UK"
      }
    },
    {
      "type": "Feature",
      "geometry": {
        "type": "Point",
        "coordinates": [
          -1.3147237,
          53.89178339999999
        ]
      },
      "properties": {
        "id": "farm_v9jf7dj34w",
        "name": "Toulston Hall Farm",
        "slug": "toulston-hall-farm",
        "address": "Toulston Hall Farm",
        "city": "Tadcaster LS24 9LT",
        "county": "",
        "postcode": "UK"
      }
    },
    {
      "type": "Feature",
      "geometry": {
        "type": "Point",
        "coordinates": [
          -3.0568106,
          53.1719032
        ]
      },
      "properties": {
        "id": "farm_za1h5zg6v3",
        "name": "Lesters Farm Shop",
        "slug": "lesters-farm-shop",
        "address": "Drury Farm",
        "city": "Buckley CH7 3DX",
        "county": "",
        "postcode": "UK"
      }
    },
    {
      "type": "Feature",
      "geometry": {
        "type": "Point",
        "coordinates": [
          -3.1134089,
          53.11293010000001
        ]
      },
      "properties": {
        "id": "farm_l3p4gy98l1",
        "name": "Swans Farm Shop",
        "slug": "swans-farm-shop",
        "address": "1 A5104",
        "city": "Mold CH7 4LL",
        "county": "",
        "postcode": "UK"
      }
    },
    {
      "type": "Feature",
      "geometry": {
        "type": "Point",
        "coordinates": [
          -3.0791146,
          53.1676388
        ]
      },
      "properties": {
        "id": "farm_s5yiuqj4dp",
        "name": "Bistre Farm Shop",
        "slug": "bistre-farm-shop",
        "address": "11/12",
        "city": "Buckley CH7 2EF",
        "county": "",
        "postcode": "UK"
      }
    },
    {
      "type": "Feature",
      "geometry": {
        "type": "Point",
        "coordinates": [
          -2.4747792,
          53.5477615
        ]
      },
      "properties": {
        "id": "farm_vvrylapmqp",
        "name": "Milk Maids",
        "slug": "milk-maids",
        "address": "Deardens Farm",
        "city": "Bolton BL5 1AT",
        "county": "",
        "postcode": "UK"
      }
    },
    {
      "type": "Feature",
      "geometry": {
        "type": "Point",
        "coordinates": [
          -2.3520863,
          52.9898719
        ]
      },
      "properties": {
        "id": "farm_l7tmvat1wk",
        "name": "Baa Hill Farm Shop",
        "slug": "baa-hill-farm-shop",
        "address": "82 Bar Hill",
        "city": "Crewe CW3 9QE",
        "county": "",
        "postcode": "UK"
      }
    },
    {
      "type": "Feature",
      "geometry": {
        "type": "Point",
        "coordinates": [
          -2.749276,
          53.0379342
        ]
      },
      "properties": {
        "id": "farm_r2h35q86ok",
        "name": "Malpas Farm Shop",
        "slug": "malpas-farm-shop",
        "address": "Beechcroft",
        "city": "Malpas SY14 8JQ",
        "county": "",
        "postcode": "UK"
      }
    },
    {
      "type": "Feature",
      "geometry": {
        "type": "Point",
        "coordinates": [
          -3.0135165,
          53.0610547
        ]
      },
      "properties": {
        "id": "farm_oksa3ticpp",
        "name": "Jones Brothers Farm Shop",
        "slug": "jones-brothers-farm-shop",
        "address": "Stansty Lodge",
        "city": "Wrexham LL11 4YF",
        "county": "",
        "postcode": "UK"
      }
    },
    {
      "type": "Feature",
      "geometry": {
        "type": "Point",
        "coordinates": [
          -3.0018176,
          53.33053899999999
        ]
      },
      "properties": {
        "id": "farm_wy5bjo5rqw",
        "name": "Vineyard Farm",
        "slug": "vineyard-farm",
        "address": "Poulton Rd",
        "city": "Wirral CH63 9LQ",
        "county": "",
        "postcode": "UK"
      }
    },
    {
      "type": "Feature",
      "geometry": {
        "type": "Point",
        "coordinates": [
          -2.5833512,
          53.00940019999999
        ]
      },
      "properties": {
        "id": "farm_u7pcdm1vzi",
        "name": "Longmans Farm Shop",
        "slug": "longmans-farm-shop",
        "address": "Whitchurch Rd",
        "city": "Nantwich CW5 8DJ",
        "county": "",
        "postcode": "UK"
      }
    },
    {
      "type": "Feature",
      "geometry": {
        "type": "Point",
        "coordinates": [
          -2.3499451,
          53.292474
        ]
      },
      "properties": {
        "id": "farm_i18e8kpn6i",
        "name": "The Lambing Shed Farm Shop & Kitchen",
        "slug": "the-lambing-shed-farm-shop-kitchen",
        "address": "Moseley Hall Farm",
        "city": "Knutsford WA16 8RB",
        "county": "",
        "postcode": "UK"
      }
    },
    {
      "type": "Feature",
      "geometry": {
        "type": "Point",
        "coordinates": [
          -2.9159438,
          53.5886188
        ]
      },
      "properties": {
        "id": "farm_rzyls8uwrv",
        "name": "Diglake Farm Shop",
        "slug": "diglake-farm-shop",
        "address": "Southport Rd",
        "city": "Ormskirk L40 8HF",
        "county": "",
        "postcode": "UK"
      }
    },
    {
      "type": "Feature",
      "geometry": {
        "type": "Point",
        "coordinates": [
          -2.8992463,
          53.5016511
        ]
      },
      "properties": {
        "id": "farm_3m3u9lbkpl",
        "name": "Melling Farm Shop & Coffee garden",
        "slug": "melling-farm-shop-coffee-garden",
        "address": "Bank Ln",
        "city": "Liverpool L31 1AX",
        "county": "",
        "postcode": "UK"
      }
    },
    {
      "type": "Feature",
      "geometry": {
        "type": "Point",
        "coordinates": [
          -3.0115365,
          53.1801116
        ]
      },
      "properties": {
        "id": "farm_gm2sqdb5bv",
        "name": "Hawarden Estate Farm Shop",
        "slug": "hawarden-estate-farm-shop",
        "address": "Chester Rd",
        "city": "Deeside CH5 3FB",
        "county": "",
        "postcode": "UK"
      }
    },
    {
      "type": "Feature",
      "geometry": {
        "type": "Point",
        "coordinates": [
          -2.3401818,
          53.1805144
        ]
      },
      "properties": {
        "id": "farm_fh35g8ukyp",
        "name": "Pear Tree Farm",
        "slug": "pear-tree-farm",
        "address": "Pear Tree Farm",
        "city": "Sandbach CW11 1RR",
        "county": "",
        "postcode": "UK"
      }
    },
    {
      "type": "Feature",
      "geometry": {
        "type": "Point",
        "coordinates": [
          -2.7305423,
          53.4836962
        ]
      },