{
  "type": "FeatureCollection",
  "features": [
    {
      "type": "Feature",
      "geometry": {
        "type": "Point",
        "coordinates": [
          0.4549909,
          51.6010413
        ]
      },
      "properties": {
        "id": "farm_j6dk2hwv50",
        "name": "Barleylands Farm Shop",
        "slug": "barleylands-farm-shop",
        "address": "Southend Road",
        "city": "",
        "county": "England",
        "postcode": "CM11 2UQ"
      }
    },
    {
      "type": "Feature",
      "geometry": {
        "type": "Point",
        "coordinates": [
          -0.136482,
          51.234312
        ]
      },
      "properties": {
        "id": "farm_407zsq27r2",
        "name": "Priory Farm Shop",
        "slug": "priory-farm-shop",
        "address": "Priory Farm Sandy Lane",
        "city": "Redhill RH1 4EJ",
        "county": "England",
        "postcode": "UK"
      }
    },
    {
      "type": "Feature",
      "geometry": {
        "type": "Point",
        "coordinates": [
          -0.4470722,
          51.6040329
        ]
      },
      "properties": {
        "id": "farm_8ztnpr01z1",
        "name": "Ducks Hill Farm",
        "slug": "ducks-hill-farm",
        "address": "Ducks Hill Road",
        "city": "",
        "county": "England",
        "postcode": "HA6 2SP"
      }
    },
    {
      "type": "Feature",
      "geometry": {
        "type": "Point",
        "coordinates": [
          0.4765205999999999,
          51.7101263
        ]
      },
      "properties": {
        "id": "farm_kgywr48x9h",
        "name": "Lathcoats Farm",
        "slug": "lathcoats-farm",
        "address": "Beehive Lane",
        "city": "Great Baddow",
        "county": "England",
        "postcode": "CM2 8LX"
      }
    },
    {
      "type": "Feature",
      "geometry": {
        "type": "Point",
        "coordinates": [
          0.0946814,
          51.5971878
        ]
      },
      "properties": {
        "id": "farm_mfmxtfg0zu",
        "name": "Forest Farm Shop",
        "slug": "forest-farm-shop",
        "address": "Forest Road",
        "city": "",
        "county": "England",
        "postcode": "IG6 3HQ"
      }
    },
    {
      "type": "Feature",
      "geometry": {
        "type": "Point",
        "coordinates": [
          -0.5884669,
          51.4677926
        ]
      },
      "properties": {
        "id": "farm_1luilzy6bs",
        "name": "Windsor Farm Shop",
        "slug": "windsor-farm-shop",
        "address": "Datchet Road",
        "city": "Old Windsor",
        "county": "England",
        "postcode": "SL4 2RQ"
      }
    },
    {
      "type": "Feature",
      "geometry": {
        "type": "Point",
        "coordinates": [
          0.515312,
          51.288229
        ]
      },
      "properties": {
        "id": "farm_wxsnv7oyft",
        "name": "Ringlestone Farm Shop",
        "slug": "ringlestone-farm-shop",
        "address": "20, Calder Road",
        "city": "",
        "county": "England",
        "postcode": "ME14 2QQ"
      }
    },
    {
      "type": "Feature",
      "geometry": {
        "type": "Point",
        "coordinates": [
          -0.0706747,
          51.7223052
        ]
      },
      "properties": {
        "id": "farm_tmq4x9akjj",
        "name": "Appleby Street Farm and Shop",
        "slug": "appleby-street-farm-and-shop",
        "address": "Appleby Street Farm",
        "city": "Waltham Cross EN7 6QT",
        "county": "England",
        "postcode": "UK"
      }
    },
    {
      "type": "Feature",
      "geometry": {
        "type": "Point",
        "coordinates": [
          0.045587,
          51.098651
        ]
      },
      "properties": {
        "id": "farm_g28z2ok1gw",
        "name": "Tablehurst Farm Shop and Cafe",
        "slug": "tablehurst-farm-shop-and-cafe",
        "address": "London Road",
        "city": "Forest Row",
        "county": "England",
        "postcode": "RH18 5DP"
      }
    },
    {
      "type": "Feature",
      "geometry": {
        "type": "Point",
        "coordinates": [
          0.2371342,
          51.1070681
        ]
      },
      "properties": {
        "id": "farm_va8n9j8tj8",
        "name": "Fuller's Farm Shop",
        "slug": "fuller-s-farm-shop",
        "address": "Bunny Lane",
        "city": "",
        "county": "England",
        "postcode": "TN3 9BY"
      }
    },
    {
      "type": "Feature",
      "geometry": {
        "type": "Point",
        "coordinates": [
          -0.2832552,
          51.0852161
        ]
      },
      "properties": {
        "id": "farm_a4sfhp39rb",
        "name": "New House Farm Shop",
        "slug": "new-house-farm-shop",
        "address": "Old Crawley Road",
        "city": "Faygate",
        "county": "England",
        "postcode": "RH12 4RU"
      }
    },
    {
      "type": "Feature",
      "geometry": {
        "type": "Point",
        "coordinates": [
          -0.1516883,
          51.5088516
        ]
      },
      "properties": {
        "id": "farm_ae0ok9xrtp",
        "name": "Farm Shop, Mayfair",
        "slug": "farm-shop-mayfair",
        "address": "64, South Audley Street",
        "city": "",
        "county": "England",
        "postcode": "W1K 2QT"
      }
    },
    {
      "type": "Feature",
      "geometry": {
        "type": "Point",
        "coordinates": [
          0.5758611,
          51.6066952
        ]
      },
      "properties": {
        "id": "farm_t2khmjvsqr",
        "name": "Nanny Kays Farm Shop",
        "slug": "nanny-kays-farm-shop",
        "address": "Rawreth",
        "city": "Wickford SS11 8SJ",
        "county": "England",
        "postcode": "UK"
      }
    },
    {
      "type": "Feature",
      "geometry": {
        "type": "Point",
        "coordinates": [
          0.0120542,
          51.9004516
        ]
      },
      "properties": {
        "id": "farm_h88gixwp98",
        "name": "Pearce's Farm Shop & Cafe",
        "slug": "pearce-s-farm-shop-cafe",
        "address": "A10",
        "city": "Buntingford SG9 9ND",
        "county": "England",
        "postcode": "UK"
      }
    },
    {
      "type": "Feature",
      "geometry": {
        "type": "Point",
        "coordinates": [
          -0.2879939,
          51.1545771
        ]
      },
      "properties": {
        "id": "farm_ajjahizf0r",
        "name": "Tanhouse Farm Shop",
        "slug": "tanhouse-farm-shop",
        "address": "Tanhouse Farm",
        "city": "Dorking RH5 5BX",
        "county": "England",
        "postcode": "UK"
      }
    },
    {
      "type": "Feature",
      "geometry": {
        "type": "Point",
        "coordinates": [
          -0.4306035,
          51.2148639
        ]
      },
      "properties": {
        "id": "farm_8mkxxcth7o",
        "name": "Kingfisher Farm & Flower Shop",
        "slug": "kingfisher-farm-flower-shop",
        "address": "Guildford Road",
        "city": "Abinger Hammer",
        "county": "England",
        "postcode": "RH5 6AG"
      }
    },
    {
      "type": "Feature",
      "geometry": {
        "type": "Point",
        "coordinates": [
          0.5107087,
          51.7203656
        ]
      },
      "properties": {
        "id": "farm_nl56yybqh8",
        "name": "Manor Farm Shop",
        "slug": "manor-farm-shop",
        "address": "Maldon Road",
        "city": "Great Baddow",
        "county": "England",
        "postcode": "CM2 7DQ"
      }
    },
    {
      "type": "Feature",
      "geometry": {
        "type": "Point",
        "coordinates": [
          -0.7758134,
          51.7361636
        ]
      },
      "properties": {
        "id": "farm_vjkq5b0d77",
        "name": "Buckmoorend Farm Shop",
        "slug": "buckmoorend-farm-shop",
        "address": "Buckmoorend Farm",
        "city": "Aylesbury HP17 0UT",
        "county": "England",
        "postcode": "UK"
      }
    },
    {
      "type": "Feature",
      "geometry": {
        "type": "Point",
        "coordinates": [
          0.2001116,
          51.1082013
        ]
      },
      "properties": {
        "id": "farm_ugntrx9zds",
        "name": "Birchden vineyard and farm shop",
        "slug": "birchden-vineyard-and-farm-shop",
        "address": "Broadwater Forest Lane",
        "city": "Groombridge",
        "county": "England",
        "postcode": "TN3 9NR"
      }
    },
    {
      "type": "Feature",
      "geometry": {
        "type": "Point",
        "coordinates": [
          0.1318778,
          51.350547
        ]
      },
      "properties": {
        "id": "farm_ez8mjr76dy",
        "name": "Hewitt's Farm shop",
        "slug": "hewitt-s-farm-shop",
        "address": "Court Road, A224",
        "city": "Chelsfield",
        "county": "England",
        "postcode": "BR6 9BX"
      }
    },
    {
      "type": "Feature",
      "geometry": {
        "type": "Point",
        "coordinates": [
          0.5205375999999999,
          51.081615
        ]
      },
      "properties": {
        "id": "farm_kz7jvuyrve",
        "name": "Cranbrook Farm Shop & Nursery",
        "slug": "cranbrook-farm-shop-nursery",
        "address": "Swattenden Lane",
        "city": "Swattenden",
        "county": "England",
        "postcode": "TN17 3PS"
      }
    },
    {
      "type": "Feature",
      "geometry": {
        "type": "Point",
        "coordinates": [
          -0.3152746,
          51.773747
        ]
      },
      "properties": {
        "id": "farm_0qp80ixurl",
        "name": "Carpenters Nursery & Farm Shop",
        "slug": "carpenters-nursery-farm-shop",
        "address": "106, St.Albans Road",
        "city": "Sandridge",
        "county": "England",
        "postcode": "AL4 9LJ"
      }
    },
    {
      "type": "Feature",
      "geometry": {
        "type": "Point",
        "coordinates": [
          -0.6343181999999999,
          51.8401031
        ]
      },
      "properties": {
        "id": "farm_y20i1wyqs8",
        "name": "Groom's Farm Shop",
        "slug": "groom-s-farm-shop",
        "address": "Willowdene Farm Ford End Ivinghoe Nr",
        "city": "Leighton Buzzard LU7 9EA",
        "county": "England",
        "postcode": "UK"
      }
    },
    {
      "type": "Feature",
      "geometry": {
        "type": "Point",
        "coordinates": [
          -0.5268377000000001,
          51.3874203
        ]
      },
      "properties": {
        "id": "farm_tuthjxmi7u",
        "name": "The Farm Shop Lyne Ltd",
        "slug": "the-farm-shop-lyne-ltd",
        "address": "Hardwick Lane",
        "city": "Lyne",
        "county": "England",
        "postcode": "KT16 0AA"
      }
    },
    {
      "type": "Feature",
      "geometry": {
        "type": "Point",
        "coordinates": [
          0.5461581,
          51.15301909999999
        ]
      },
      "properties": {
        "id": "farm_qklo3yuqq4",
        "name": "Henhurst Farm Shop",
        "slug": "henhurst-farm-shop",
        "address": "Pinnock Lane",
        "city": "Staplehurst",
        "county": "England",
        "postcode": "TN12 0HD"
      }
    },
    {
      "type": "Feature",
      "geometry": {
        "type": "Point",
        "coordinates": [
          0.436661,
          51.256341
        ]
      },
      "properties": {
        "id": "farm_h8ecr65kp8",
        "name": "Farmer's Farm Shop",
        "slug": "farmer-s-farm-shop",
        "address": "Tonbridge Road",
        "city": "Teston",
        "county": "England",
        "postcode": "ME18 5BY"
      }
    },
    {
      "type": "Feature",
      "geometry": {
        "type": "Point",
        "coordinates": [
          -0.3091689,
          51.1640705
        ]
      },
      "properties": {
        "id": "farm_w5oeamm8jt",
        "name": "Hill House Farm",
        "slug": "hill-house-farm",
        "address": "Misbrooks Green Road",
        "city": "Beare Green",
        "county": "England",
        "postcode": "RH5 4QQ"
      }
    },
    {
      "type": "Feature",
      "geometry": {
        "type": "Point",
        "coordinates": [
          -0.6852674,
          51.8138154
        ]
      },
      "properties": {
        "id": "farm_gwey685mec",
        "name": "P E Mead & Sons Farmshop",
        "slug": "p-e-mead-sons-farmshop",
        "address": "Lower Icknield Way",
        "city": "",
        "county": "England",
        "postcode": "HP23 4NT"
      }
    },
    {
      "type": "Feature",
      "geometry": {
        "type": "Point",
        "coordinates": [
          -0.7339446,
          51.4582728
        ]
      },
      "properties": {
        "id": "farm_zydrys2mlq",
        "name": "Fernygrove Farm Shop & Coffee Shop",
        "slug": "fernygrove-farm-shop-coffee-shop",
        "address": "Hawthorn Lane",
        "city": "Warfield",
        "county": "England",
        "postcode": "RG42 6HN"
      }
    },
    {
      "type": "Feature",
      "geometry": {
        "type": "Point",
        "coordinates": [
          -0.7513804,
          51.44529250000001
        ]
      },
      "properties": {
        "id": "farm_tgrmyltrvb",
        "name": "Harefield Farm Shop",
        "slug": "harefield-farm-shop",
        "address": "Maidenhead Road",
        "city": "Warfield",
        "county": "England",
        "postcode": "RG42 6EJ"
      }
    },
    {
      "type": "Feature",
      "geometry": {
        "type": "Point",
        "coordinates": [
          0.445866,
          51.93855
        ]
      },
      "properties": {
        "id": "farm_m4jgfxkt4m",
        "name": "The Blue Egg",
        "slug": "the-blue-egg",
        "address": "Braintree Road",
        "city": "",
        "county": "England",
        "postcode": "CM7 4PY"
      }
    },
    {
      "type": "Feature",
      "geometry": {
        "type": "Point",
        "coordinates": [
          -0.0822222,
          51.11722220000001
        ]
      },
      "properties": {
        "id": "farm_luqh52hz4e",
        "name": "Grange Farm Shop",
        "slug": "grange-farm-shop",
        "address": "Grange Farm, Turners Hill Road",
        "city": "Crawley Down",
        "county": "England",
        "postcode": "RH10 4EY"
      }
    },
    {
      "type": "Feature",
      "geometry": {
        "type": "Point",
        "coordinates": [
          0.3289502,
          51.4130202
        ]
      },
      "properties": {
        "id": "farm_8wddohnnw8",
        "name": "Broadditch Farm Shop",
        "slug": "broadditch-farm-shop",
        "address": "New Barn Road",
        "city": "Southfleet",
        "county": "England",
        "postcode": "DA13 9PU"
      }
    },
    {
      "type": "Feature",
      "geometry": {
        "type": "Point",
        "coordinates": [
          -0.419588,
          51.82026219999999
        ]
      },
      "properties": {
        "id": "farm_9kosxx0tip",
        "name": "The Pop Up Farm",
        "slug": "the-pop-up-farm",
        "address": "M1 Junction 9",
        "city": "St Albans AL3 8HT",
        "county": "England",
        "postcode": "UK"
      }
    },
    {
      "type": "Feature",
      "geometry": {
        "type": "Point",
        "coordinates": [
          0.512828,
          51.0852073
        ]
      },
      "properties": {
        "id": "farm_oecg6y0v03",
        "name": "Hartley Farm Shop",
        "slug": "hartley-farm-shop",
        "address": "Hartley Road",
        "city": "",
        "county": "England",
        "postcode": "TN17 3QG"
      }
    },
    {
      "type": "Feature",
      "geometry": {
        "type": "Point",
        "coordinates": [
          0.2432337,
          51.5389676
        ]
      },
      "properties": {
        "id": "farm_jet7nrhu3a",
        "name": "Bloom & Veg",
        "slug": "bloom-veg",
        "address": "Aveley Road",
        "city": "",
        "county": "England",
        "postcode": "RM14 2TW"
      }
    },
    {
      "type": "Feature",
      "geometry": {
        "type": "Point",
        "coordinates": [
          0.136999,
          51.41309589999999
        ]
      },
      "properties": {
        "id": "farm_jgruvtmr85",
        "name": "Honeydale Farm Tea Rooms",
        "slug": "honeydale-farm-tea-rooms",
        "address": "217, Maidstone Road",
        "city": "",
        "county": "England",
        "postcode": "DA14 5AW"
      }
    },
    {
      "type": "Feature",
      "geometry": {
        "type": "Point",
        "coordinates": [
          0.19503,
          51.1284573
        ]
      },
      "properties": {
        "id": "farm_2z3uyc3p7o",
        "name": "Groombridge Farm Shop",
        "slug": "groombridge-farm-shop",
        "address": "Groombridge Hill",
        "city": "",
        "county": "England",
        "postcode": "TN3 9LY"
      }
    },
    {
      "type": "Feature",
      "geometry": {
        "type": "Point",
        "coordinates": [
          0.4759287,
          51.1136303
        ]
      },
      "properties": {
        "id": "farm_ekfntie3lg",
        "name": "Taywell Farm Shop",
        "slug": "taywell-farm-shop",
        "address": "Cranbrook Road",
        "city": "Goudhurst",
        "county": "England",
        "postcode": "TN17 1DY"
      }
    },
    {
      "type": "Feature",
      "geometry": {
        "type": "Point",
        "coordinates": [
          -0.8449317,
          51.6207593
        ]
      },
      "properties": {
        "id": "farm_0jcyyjyz6s",
        "name": "Laceys Farm Shop",
        "slug": "laceys-farm-shop",
        "address": "Finings Road",
        "city": "Lane End",
        "county": "England",
        "postcode": "HP14 3LP"
      }
    },
    {
      "type": "Feature",
      "geometry": {
        "type": "Point",
        "coordinates": [
          -0.798864,
          51.608531
        ]
      },
      "properties": {
        "id": "farm_xgsua6yxiw",
        "name": "Westside Fruit Ltd",
        "slug": "westside-fruit-ltd",
        "address": "Booker Farm Shop",
        "city": "Booker SL7 3DJ",
        "county": "England",
        "postcode": "UK"
      }
    },
    {
      "type": "Feature",
      "geometry": {
        "type": "Point",
        "coordinates": [
          -0.7247629999999999,
          51.6865049
        ]
      },
      "properties": {
        "id": "farm_1fee0oiinf",
        "name": "Peterley Manor Farm",
        "slug": "peterley-manor-farm",
        "address": "Peterley Lane",
        "city": "Prestwood",
        "county": "England",
        "postcode": "HP16 0HH"
      }
    },
    {
      "type": "Feature",
      "geometry": {
        "type": "Point",
        "coordinates": [
          -0.8200314999999999,
          51.395991
        ]
      },
      "properties": {
        "id": "farm_5mfc0wuos2",
        "name": "Gray's Farm",
        "slug": "gray-s-farm",
        "address": "Heathlands Road",
        "city": "",
        "county": "England",
        "postcode": "RG40 3AN"
      }
    },
    {
      "type": "Feature",
      "geometry": {
        "type": "Point",
        "coordinates": [
          -0.8336471,
          51.1207629
        ]
      },
      "properties": {
        "id": "farm_5fnekplc0y",
        "name": "Luff's Farm Shop",
        "slug": "luff-s-farm-shop",
        "address": "Mill Lane",
        "city": "Headley",
        "county": "England",
        "postcode": "GU35 0PB"
      }
    },
    {
      "type": "Feature",
      "geometry": {
        "type": "Point",
        "coordinates": [
          0.2864508,
          51.6278777
        ]
      },
      "properties": {
        "id": "farm_7vjb9ctn19",
        "name": "Calcott Hall Farm",
        "slug": "calcott-hall-farm",
        "address": "Ongar Road",
        "city": "",
        "county": "England",
        "postcode": "CM15 9HS"
      }
    },
    {
      "type": "Feature",
      "geometry": {
        "type": "Point",
        "coordinates": [
          0.1675284,
          51.414718
        ]
      },
      "properties": {
        "id": "farm_ne2h4itms9",
        "name": "Stanhill Farm",
        "slug": "stanhill-farm",
        "address": "Birchwood Road",
        "city": "",
        "county": "England",
        "postcode": "DA2 7HD"
      }
    },
    {
      "type": "Feature",
      "geometry": {
        "type": "Point",
        "coordinates": [
          -0.0407866,
          51.7895526
        ]
      },
      "properties": {
        "id": "farm_nrkp1o4g3q",
        "name": "Dawlicious Milk",
        "slug": "dawlicious-milk",
        "address": "37, Downfield Road",
        "city": "Hertford Heath",
        "county": "England",
        "postcode": "SG13 7RZ"
      }
    },
    {
      "type": "Feature",
      "geometry": {
        "type": "Point",
        "coordinates": [
          -0.8143115999999999,
          51.9581031
        ]
      },
      "properties": {
        "id": "farm_ad7jtxy8nw",
        "name": "Mursley Farm Shop",
        "slug": "mursley-farm-shop",
        "address": "Whaddon Road",
        "city": "Mursley",
        "county": "England",
        "postcode": "MK17 0PL"
      }
    },
    {
      "type": "Feature",
      "geometry": {
        "type": "Point",
        "coordinates": [
          -0.326478,
          51.7287352
        ]
      },
      "properties": {
        "id": "farm_19gibouj89",
        "name": "Hedges Farm Shop",
        "slug": "hedges-farm-shop",
        "address": "North Orbital Road",
        "city": "",
        "county": "England",
        "postcode": "AL2 2ET"
      }
    },
    {
      "type": "Feature",
      "geometry": {
        "type": "Point",
        "coordinates": [
          -0.6345396,
          51.8975922
        ]
      },
      "properties": {
        "id": "farm_3gsi0oeglo",
        "name": "The Baa T-Room",
        "slug": "the-baa-t-room",
        "address": "Greenfarm, Leighton Road",
        "city": "GtBillington",
        "county": "England",
        "postcode": "LU7 9BL"
      }
    },
    {
      "type": "Feature",
      "geometry": {
        "type": "Point",
        "coordinates": [
          -0.3236376,
          51.5433818
        ]
      },
      "properties": {
        "id": "farm_wmroa0ne9q",
        "name": "Horsenden Farm",
        "slug": "horsenden-farm",
        "address": "Horsenden Lane North",
        "city": "Horsenden Hill",
        "county": "England",
        "postcode": "UB6 7PQ"
      }
    },
    {
      "type": "Feature",
      "geometry": {
        "type": "Point",
        "coordinates": [
          -0.2716319,
          51.7536103
        ]
      },
      "properties": {
        "id": "farm_jp1x1831zh",
        "name": "Smallford Farm Shop",
        "slug": "smallford-farm-shop",
        "address": "Hatfield Road",
        "city": "Smallford",
        "county": "England",
        "postcode": "AL4 0HE"
      }
    },
    {
      "type": "Feature",
      "geometry": {
        "type": "Point",
        "coordinates": [
          -0.3451632,
          51.1528216
        ]
      },
      "properties": {
        "id": "farm_c53g09skwk",
        "name": "Village Greens Farm Shop Coles Lane, Ockley",
        "slug": "village-greens-farm-shop-coles-lane-ockley",
        "address": "Coles Lane",
        "city": "Ockley",
        "county": "England",
        "postcode": "RH5 5LS"
      }
    },
    {
      "type": "Feature",
      "geometry": {
        "type": "Point",
        "coordinates": [
          0.3854979,
          51.91791869999999
        ]
      },
      "properties": {
        "id": "farm_eomylh9sb7",
        "name": "Priors Hall Farm",
        "slug": "priors-hall-farm",
        "address": "Lindsell",
        "city": "Dunmow CM6 3QR",
        "county": "England",
        "postcode": "UK"
      }
    },
    {
      "type": "Feature",
      "geometry": {
        "type": "Point",
        "coordinates": [
          -0.5733836999999999,
          51.282263
        ]
      },
      "properties": {
        "id": "farm_jw8424vnhp",
        "name": "Noel's Farm Shop",
        "slug": "noel-s-farm-shop",
        "address": "Guildford Road",
        "city": "",
        "county": "England",
        "postcode": "GU4 7QB"
      }
    },
    {
      "type": "Feature",
      "geometry": {
        "type": "Point",
        "coordinates": [
          0.315133,
          51.21723979999999
        ]
      },
      "properties": {
        "id": "farm_7mbptrfbcs",
        "name": "Haywards Farmshop",
        "slug": "haywards-farmshop",
        "address": "Tonbridge Road",
        "city": "Hadlow",
        "county": "England",
        "postcode": "TN11 0AH"
      }
    },
    {
      "type": "Feature",
      "geometry": {
        "type": "Point",
        "coordinates": [
          0.4899954,
          51.4216666
        ]
      },
      "properties": {
        "id": "farm_vt7f9907jz",
        "name": "Myatts of Mockbeggar Farm Shop",
        "slug": "myatts-of-mockbeggar-farm-shop",
        "address": "Town Road",
        "city": "",
        "county": "England",
        "postcode": "ME3 8EU"
      }
    },
    {
      "type": "Feature",
      "geometry": {
        "type": "Point",
        "coordinates": [
          0.0437774,
          51.34746999999999
        ]
      },
      "properties": {
        "id": "farm_6mpbiwu7su",
        "name": "Holwood Farm Shop",
        "slug": "holwood-farm-shop",
        "address": "New Road Hill",
        "city": "Leaves Green",
        "county": "England",
        "postcode": "BR2 6AB"
      }
    },
    {
      "type": "Feature",
      "geometry": {
        "type": "Point",
        "coordinates": [
          -0.667281,
          51.5812898
        ]
      },
      "properties": {
        "id": "farm_dgakuzyg8k",
        "name": "T Rayner & Son (Castlemans Farm)",
        "slug": "t-rayner-son-castlemans-farm",
        "address": "Green Common Lane",
        "city": "Wooburn Green",
        "county": "England",
        "postcode": "HP10 0LH"
      }
    },
    {
      "type": "Feature",
      "geometry": {
        "type": "Point",
        "coordinates": [
          -0.1252551,
          51.6756235
        ]
      },
      "properties": {
        "id": "farm_u1doc0sgob",
        "name": "Botany Bay Farm Shop",
        "slug": "botany-bay-farm-shop",
        "address": "The Ridgeway",
        "city": "",
        "county": "England",
        "postcode": "EN2 8AP"
      }
    },
    {
      "type": "Feature",
      "geometry": {
        "type": "Point",
        "coordinates": [
          -1.6381553,
          53.234137
        ]
      },
      "properties": {
        "id": "farm_wsm4v5bzzz",
        "name": "Chatsworth Estate Farm Shop",
        "slug": "chatsworth-estate-farm-shop",
        "address": "Pilsley",
        "city": "Bakewell DE45 1UF",
        "county": "England",
        "postcode": "UK"
      }
    },
    {
      "type": "Feature",
      "geometry": {
        "type": "Point",
        "coordinates": [
          -2.6255954,
          53.2055726
        ]
      },
      "properties": {
        "id": "farm_2hngv9plsh",
        "name": "The Hollies Farm Shop",
        "slug": "the-hollies-farm-shop",
        "address": "Tarporley Road",
        "city": "Little Budworth",
        "county": "England",
        "postcode": "CW6 9ES"
      }
    },
    {
      "type": "Feature",
      "geometry": {
        "type": "Point",
        "coordinates": [
          -2.4917623,
          53.4278403
        ]
      },
      "properties": {
        "id": "farm_i4u0jeqq37",
        "name": "Hoyles Moss Farm Honesty Shop",
        "slug": "hoyles-moss-farm-honesty-shop",
        "address": "Birchwood",
        "city": "Warrington WA3 6LH",
        "county": "England",
        "postcode": "UK"
      }
    },
    {
      "type": "Feature",
      "geometry": {
        "type": "Point",
        "coordinates": [
          -1.8013703,
          53.6101046
        ]
      },
      "properties": {
        "id": "farm_0eehr156lr",
        "name": "Hinchliffe's Farm Shop",
        "slug": "hinchliffe-s-farm-shop",
        "address": "Netherton Moor Road",
        "city": "",
        "county": "England",
        "postcode": "HD4 7LE"
      }
    },
    {
      "type": "Feature",
      "geometry": {
        "type": "Point",
        "coordinates": [
          -1.6551719,
          53.6151103
        ]
      },
      "properties": {
        "id": "farm_6rkt1z50u2",
        "name": "Thorncliffe Farm Shop",
        "slug": "thorncliffe-farm-shop",
        "address": "1, Westfield Lane",
        "city": "Emley",
        "county": "England",
        "postcode": "HD8 9SZ"
      }
    },
    {
      "type": "Feature",
      "geometry": {
        "type": "Point",
        "coordinates": [
          -1.8426143,
          53.6682413
        ]
      },
      "properties": {
        "id": "farm_vk1hglqega",
        "name": "Brosters Farm Shop",
        "slug": "brosters-farm-shop",
        "address": "Haigh House Hill",
        "city": "",
        "county": "England",
        "postcode": "HD3 3SZ"
      }
    },
    {
      "type": "Feature",
      "geometry": {
        "type": "Point",
        "coordinates": [
          -1.710649,
          53.694038
        ]
      },
      "properties": {
        "id": "farm_b0h7z8z1pn",
        "name": "Haigh's Farm Shop Ltd",
        "slug": "haigh-s-farm-shop-ltd",
        "address": "Far Common Road",
        "city": "",
        "county": "England",
        "postcode": "WF14 0DQ"
      }
    },
    {
      "type": "Feature",
      "geometry": {
        "type": "Point",
        "coordinates": [
          -1.775319,
          53.257219
        ]
      },
      "properties": {
        "id": "farm_asaf0ivnoh",
        "name": "Beltonville Farm Shop and Campsite",
        "slug": "beltonville-farm-shop-and-campsite",
        "address": "Beltonville Farm",
        "city": "Buxton SK17 8SS",
        "county": "England",
        "postcode": "UK"
      }
    },
    {
      "type": "Feature",
      "geometry": {
        "type": "Point",
        "coordinates": [
          -2.819801,
          53.5887489
        ]
      },
      "properties": {
        "id": "farm_zkxkl97ko6",
        "name": "Taylors Farm Shop Ltd",
        "slug": "taylors-farm-shop-ltd",
        "address": "Hall Lane",
        "city": "",
        "county": "England",
        "postcode": "L40 5UW"
      }
    },
    {
      "type": "Feature",
      "geometry": {
        "type": "Point",
        "coordinates": [
          -1.597263,
          53.7029911
        ]
      },
      "properties": {
        "id": "farm_069gfuc0jj",
        "name": "Chidswell Farm Shop",
        "slug": "chidswell-farm-shop",
        "address": "Chidswell Lane",
        "city": "",
        "county": "England",
        "postcode": "WF12 7SW"
      }
    },
    {
      "type": "Feature",
      "geometry": {
        "type": "Point",
        "coordinates": [
          -1.774319,
          53.6791545
        ]
      },
      "properties": {
        "id": "farm_xivydybiol",
        "name": "Villa Farm Shop and Cafe",
        "slug": "villa-farm-shop-and-cafe",
        "address": "Bradford Road",
        "city": "",
        "county": "England",
        "postcode": "HD2 2JX"
      }
    },
    {
      "type": "Feature",
      "geometry": {
        "type": "Point",
        "coordinates": [
          -2.8873329,
          53.0757671
        ]
      },
      "properties": {
        "id": "farm_5buktweu87",
        "name": "Bellis Brothers Farm Shop and Garden Centre",
        "slug": "bellis-brothers-farm-shop-and-garden-centre",
        "address": "Wrexham Road",
        "city": "Holt",
        "county": "Wales",
        "postcode": "LL13 9YU"
      }
    },
    {
      "type": "Feature",
      "geometry": {
        "type": "Point",
        "coordinates": [
          -2.596383,
          53.6942509
        ]
      },
      "properties": {
        "id": "farm_pzx02vccot",
        "name": "Spout House Farm Shop",
        "slug": "spout-house-farm-shop",
        "address": "Blackburn Road",
        "city": "Higher Wheelton",
        "county": "England",
        "postcode": "PR6 8HS"
      }
    },
    {
      "type": "Feature",
      "geometry": {
        "type": "Point",
        "coordinates": [
          -1.7354293,
          53.33318389999999
        ]
      },
      "properties": {
        "id": "farm_glix5ggxhu",
        "name": "Keepers Cottage Organics",
        "slug": "keepers-cottage-organics",
        "address": "Bradwell",
        "city": "Hope Valley S33 9JT",
        "county": "England",
        "postcode": "UK"
      }
    },
    {
      "type": "Feature",
      "geometry": {
        "type": "Point",
        "coordinates": [
          -1.491631,
          53.172346
        ]
      },
      "properties": {
        "id": "farm_rljmft2r0s",
        "name": "Marsh Green Farm Shop",
        "slug": "marsh-green-farm-shop",
        "address": "Matlock Road",
        "city": "Kelstedge",
        "county": "England",
        "postcode": "S45 0DX"
      }
    },
    {
      "type": "Feature",
      "geometry": {
        "type": "Point",
        "coordinates": [
          -1.4907869,
          53.539026
        ]
      },
      "properties": {
        "id": "farm_dobgo0y98e",
        "name": "Rob Royd",
        "slug": "rob-royd",
        "address": "Genn Lane",
        "city": "",
        "county": "England",
        "postcode": "S70 6NW"
      }
    },
    {
      "type": "Feature",
      "geometry": {
        "type": "Point",
        "coordinates": [
          -2.3795098,
          53.1238325
        ]
      },
      "properties": {
        "id": "farm_l7gotib7bk",
        "name": "Wheelock Hall Farm Shop",
        "slug": "wheelock-hall-farm-shop",
        "address": "Crewe Road",
        "city": "",
        "county": "England",
        "postcode": "CW11 4RE"
      }
    },
    {
      "type": "Feature",
      "geometry": {
        "type": "Point",
        "coordinates": [
          -2.8831768,
          53.2612104
        ]
      },
      "properties": {
        "id": "farm_t8xgsg7nax",
        "name": "Lime Tree Farm Shop",
        "slug": "lime-tree-farm-shop",
        "address": "Stanney Lane",
        "city": "Little Stanney",
        "county": "England",
        "postcode": "CH2 4HT"
      }
    },
    {
      "type": "Feature",
      "geometry": {
        "type": "Point",
        "coordinates": [
          -1.5038322,
          53.1980908
        ]
      },
      "properties": {
        "id": "farm_0ky3hqrg0h",
        "name": "Highfield House Farm Shop",
        "slug": "highfield-house-farm-shop",
        "address": "Darley Road",
        "city": "Ashover",
        "county": "England",
        "postcode": "S45 0LW"
      }
    },
    {
      "type": "Feature",
      "geometry": {
        "type": "Point",
        "coordinates": [
          -2.787597,
          53.897341
        ]
      },
      "properties": {
        "id": "farm_gjxp2gi1kz",
        "name": "Bradshaws Farm Shop",
        "slug": "bradshaws-farm-shop",
        "address": "Prospect Farm Garstang By Pass Road",
        "city": "Preston PR3 0LP",
        "county": "England",
        "postcode": "UK"
      }
    },
    {
      "type": "Feature",
      "geometry": {
        "type": "Point",
        "coordinates": [
          -2.2591824,
          53.0675882
        ]
      },
      "properties": {
        "id": "farm_a4wh1hmlo4",
        "name": "Arbour Farm",
        "slug": "arbour-farm",
        "address": "Oak Tree Lane, Jamage Road",
        "city": "Talke Pits",
        "county": "England",
        "postcode": "ST7 1QL"
      }
    },
    {
      "type": "Feature",
      "geometry": {
        "type": "Point",
        "coordinates": [
          -1.8781214,
          53.7833662
        ]
      },
      "properties": {
        "id": "farm_c0oyz6i9i7",
        "name": "Robertshaw's Farm Shop",
        "slug": "robertshaw-s-farm-shop",
        "address": "Keelham Hall Farm",
        "city": "Bradford BD13 3SS",
        "county": "England",
        "postcode": "UK"
      }
    },
    {
      "type": "Feature",
      "geometry": {
        "type": "Point",
        "coordinates": [
          -2.230524,
          53.1499113
        ]
      },
      "properties": {
        "id": "farm_ky9a69750w",
        "name": "Glebe Farm",
        "slug": "glebe-farm",
        "address": "Peel Lane",
        "city": "Astbury",
        "county": "England",
        "postcode": "CW12 4RQ"
      }
    },
    {
      "type": "Feature",
      "geometry": {
        "type": "Point",
        "coordinates": [
          -2.7865833,
          53.7060007
        ]
      },
      "properties": {
        "id": "farm_9p8fve3hph",
        "name": "Woods Farm Shop",
        "slug": "woods-farm-shop",
        "address": "Knoll Lane",
        "city": "",
        "county": "England",
        "postcode": "PR4 4TB"
      }
    },
    {
      "type": "Feature",
      "geometry": {
        "type": "Point",
        "coordinates": [
          -1.7143975,
          53.76232899999999
        ]
      },
      "properties": {
        "id": "farm_me0itnj2fj",
        "name": "Model Farm Shop Ltd.",
        "slug": "model-farm-shop-ltd",
        "address": "193, Toftshaw Lane",
        "city": "",
        "county": "England",
        "postcode": "BD4 6QR"
      }
    },
    {
      "type": "Feature",
      "geometry": {
        "type": "Point",
        "coordinates": [
          -1.5709763,
          53.7419379
        ]
      },
      "properties": {
        "id": "farm_hnxfv021ju",
        "name": "Topcliffe Grange Farm",
        "slug": "topcliffe-grange-farm",
        "address": "Dewsbury Road",
        "city": "Tingley",
        "county": "England",
        "postcode": "WF3 1SH"
      }
    },
    {
      "type": "Feature",
      "geometry": {
        "type": "Point",
        "coordinates": [
          -1.8696759,
          53.6352554
        ]
      },
      "properties": {
        "id": "farm_ukm43cxlao",
        "name": "Bolster Moor Farmshop",
        "slug": "bolster-moor-farmshop",
        "address": "1a, Bolster Moor Road",
        "city": "Golcar",
        "county": "England",
        "postcode": "HD7 4JU"
      }
    },
    {
      "type": "Feature",
      "geometry": {
        "type": "Point",
        "coordinates": [
          -2.1003642,
          53.68968220000001
        ]
      },
      "properties": {
        "id": "farm_itvak2pfoz",
        "name": "Gordon Rigg Garden, Home & Leisure & Rigg's Farm Shop (Todmorden)",
        "slug": "gordon-rigg-garden-home-leisure-rigg-s-farm-shop-todmorden",
        "address": "Rochdale Road",
        "city": "Walsden",
        "county": "England",
        "postcode": "OL14 7TJ"
      }
    },
    {
      "type": "Feature",
      "geometry": {
        "type": "Point",
        "coordinates": [
          -1.5815853,
          53.4025715
        ]
      },
      "properties": {
        "id": "farm_jp67rdq4rj",
        "name": "Syke House Farm Shop",
        "slug": "syke-house-farm-shop",
        "address": "Sykehouse Lane",
        "city": "",
        "county": "England",
        "postcode": "S6 6HG"
      }
    },
    {
      "type": "Feature",
      "geometry": {
        "type": "Point",
        "coordinates": [
          -2.6883984,
          53.5108289
        ]
      },
      "properties": {
        "id": "farm_4wc6svgdwk",
        "name": "Windy Arbour Farm Shop",
        "slug": "windy-arbour-farm-shop",
        "address": "Windy Arbour Farm",
        "city": "Wigan WN5 7XX",
        "county": "England",
        "postcode": "UK"
      }
    },
    {
      "type": "Feature",
      "geometry": {
        "type": "Point",
        "coordinates": [
          -1.637037,
          53.873266
        ]
      },
      "properties": {
        "id": "farm_obmw8lzyi6",
        "name": "None Go Bye Farm",
        "slug": "none-go-bye-farm",
        "address": "Otley Old Road",
        "city": "",
        "county": "England",
        "postcode": "LS18 5HZ"
      }
    },
    {
      "type": "Feature",
      "geometry": {
        "type": "Point",
        "coordinates": [
          -2.0330949,
          53.558609
        ]
      },
      "properties": {
        "id": "farm_x1kwlnz6y0",
        "name": "Albion Farm Shop & Cafe",
        "slug": "albion-farm-shop-cafe",
        "address": "Oldham Road",
        "city": "Delph",
        "county": "England",
        "postcode": "OL3 5RQ"
      }
    },
    {
      "type": "Feature",
      "geometry": {
        "type": "Point",
        "coordinates": [
          -1.5903246,
          53.5719987
        ]
      },
      "properties": {
        "id": "farm_zzdld1lcbc",
        "name": "Cannon Hall Farm",
        "slug": "cannon-hall-farm",
        "address": "Bark House Lane",
        "city": "Cawthorne",
        "county": "England",
        "postcode": "S75 4AT"
      }
    },
    {
      "type": "Feature",
      "geometry": {
        "type": "Point",
        "coordinates": [
          -2.2324895,
          53.3619014
        ]
      },
      "properties": {
        "id": "farm_tcupa8xas2",
        "name": "Nixon's Farm Shop",
        "slug": "nixon-s-farm-shop",
        "address": "Bolshaw Road",
        "city": "Heald Green",
        "county": "England",
        "postcode": "SK8 3PS"
      }
    },
    {
      "type": "Feature",
      "geometry": {
        "type": "Point",
        "coordinates": [
          -2.5975268,
          53.8478816
        ]
      },
      "properties": {
        "id": "farm_i454h3iord",
        "name": "Little Town Farm Shop",
        "slug": "little-town-farm-shop",
        "address": "Chipping Lane",
        "city": "",
        "county": "England",
        "postcode": "PR3 2TB"
      }
    },
    {
      "type": "Feature",
      "geometry": {
        "type": "Point",
        "coordinates": [
          -1.489035,
          53.7350931
        ]
      },
      "properties": {
        "id": "farm_m45mx0ogap",
        "name": "The Rhubarb Triangle Farm Shop Limited",
        "slug": "the-rhubarb-triangle-farm-shop-limited",
        "address": "Green End Farm",
        "city": "Wakefield WF3 3QR",
        "county": "England",
        "postcode": "UK"
      }
    },
    {
      "type": "Feature",
      "geometry": {
        "type": "Point",
        "coordinates": [
          -1.6532076,
          53.786182
        ]
      },
      "properties": {
        "id": "farm_qtvkh1al34",
        "name": "Tomlinson Farm Shop",
        "slug": "tomlinson-farm-shop",
        "address": "89, Roker Lane",
        "city": "",
        "county": "England",
        "postcode": "LS28 9NB"
      }
    },
    {
      "type": "Feature",
      "geometry": {
        "type": "Point",
        "coordinates": [
          -1.5058594,
          53.3151606
        ]
      },
      "properties": {
        "id": "farm_7u87t1l3ct",
        "name": "Border View Farm Shop",
        "slug": "border-view-farm-shop",
        "address": "Rod Moor Road",
        "city": "",
        "county": "England",
        "postcode": "S18 8XL"
      }
    },
    {
      "type": "Feature",
      "geometry": {
        "type": "Point",
        "coordinates": [
          -1.7158454,
          53.6585183
        ]
      },
      "properties": {
        "id": "farm_i4fsxsma40",
        "name": "Kirkheaton Farm Shop",
        "slug": "kirkheaton-farm-shop",
        "address": "135, Cockley Hill Lane",
        "city": "",
        "county": "England",
        "postcode": "HD5 0PF"
      }
    },
    {
      "type": "Feature",
      "geometry": {
        "type": "Point",
        "coordinates": [
          -2.3370312,
          53.3293804
        ]
      },
      "properties": {
        "id": "farm_kg4nevn88f",
        "name": "Waugh Brow Farm Shop",
        "slug": "waugh-brow-farm-shop",
        "address": "Smith Lane",
        "city": "",
        "county": "England",
        "postcode": "WA16 6JZ"
      }
    },
    {
      "type": "Feature",
      "geometry": {
        "type": "Point",
        "coordinates": [
          -1.5469544,
          53.63801970000001
        ]
      },
      "properties": {
        "id": "farm_5pz57fw1ta",
        "name": "Blacker Hall Farm Shop",
        "slug": "blacker-hall-farm-shop",
        "address": "Branch Road",
        "city": "Calder Grove",
        "county": "England",
        "postcode": "WF4 3DN"
      }
    },
    {
      "type": "Feature",
      "geometry": {
        "type": "Point",
        "coordinates": [
          -2.1928278,
          53.3138485
        ]
      },
      "properties": {
        "id": "farm_22bbc158r7",
        "name": "Brook House Farm Shop",
        "slug": "brook-house-farm-shop",
        "address": "Brook House Farm Shop",
        "city": "Macclesfield SK10 4QY",
        "county": "England",
        "postcode": "UK"
      }
    },
    {
      "type": "Feature",
      "geometry": {
        "type": "Point",
        "coordinates": [
          -1.9773379,
          53.12907879999999
        ]
      },
      "properties": {
        "id": "farm_3adz8r2v1i",
        "name": "Brooklyn Farm Shop",
        "slug": "brooklyn-farm-shop",
        "address": "Brooklyn Grange Farm",
        "city": "Leek ST13 8TP",
        "county": "England",
        "postcode": "UK"
      }
    },
    {
      "type": "Feature",
      "geometry": {
        "type": "Point",
        "coordinates": [
          -2.4917016,
          53.0643874
        ]
      },
      "properties": {
        "id": "farm_6as6q2zrsr",
        "name": "Cheerbrook Food Ltd",
        "slug": "cheerbrook-food-ltd",
        "address": "Newcastle Road",
        "city": "Willaston",
        "county": "England",
        "postcode": "CW5 7EL"
      }
    },
    {
      "type": "Feature",
      "geometry": {
        "type": "Point",
        "coordinates": [
          -1.5013346,
          53.3533744
        ]
      },
      "properties": {
        "id": "farm_21tszxlvsr",
        "name": "Knab Farm Shop",
        "slug": "knab-farm-shop",
        "address": "78, Montrose Road",
        "city": "",
        "county": "England",
        "postcode": "S7 2EF"
      }
    },
    {
      "type": "Feature",
      "geometry": {
        "type": "Point",
        "coordinates": [
          -2.2168481,
          53.3457333
        ]
      },
      "properties": {
        "id": "farm_6rueoygl98",
        "name": "CW Shenton Farm Shop",
        "slug": "cw-shenton-farm-shop",
        "address": "Wilmslow Rd",
        "city": "Wilmslow SK9 3EN",
        "county": "England",
        "postcode": "UK"
      }
    },
    {
      "type": "Feature",
      "geometry": {
        "type": "Point",
        "coordinates": [
          -2.5728739,
          53.4503486
        ]
      },
      "properties": {
        "id": "farm_eubksan1no",
        "name": "Kenyon Hall Farm",
        "slug": "kenyon-hall-farm",
        "address": "Winwick Lane",
        "city": "Croft",
        "county": "England",
        "postcode": "WA3 7ED"
      }
    },
    {
      "type": "Feature",
      "geometry": {
        "type": "Point",
        "coordinates": [
          -2.2556359,
          53.12775079999999
        ]
      },
      "properties": {
        "id": "farm_6j5uj31415",
        "name": "Cuttleford Farm",
        "slug": "cuttleford-farm",
        "address": "Newcastle Road",
        "city": "",
        "county": "England",
        "postcode": "CW12 4SD"
      }
    },
    {
      "type": "Feature",
      "geometry": {
        "type": "Point",
        "coordinates": [
          -1.4930569,
          53.47805349999999
        ]
      },
      "properties": {
        "id": "farm_97rfxeuy80",
        "name": "Thorpes Farm Shop",
        "slug": "thorpes-farm-shop",
        "address": "Greaves Lane",
        "city": "High Green",
        "county": "England",
        "postcode": "S35 4GR"
      }
    },
    {
      "type": "Feature",
      "geometry": {
        "type": "Point",
        "coordinates": [
          -1.679152,
          53.761754
        ]
      },
      "properties": {
        "id": "farm_inus3f55mm",
        "name": "Lane End Farm Shop",
        "slug": "lane-end-farm-shop",
        "address": "Tong Lane",
        "city": "",
        "county": "England",
        "postcode": "BD4 0RY"
      }
    },
    {
      "type": "Feature",
      "geometry": {
        "type": "Point",
        "coordinates": [
          -2.1208856,
          53.5788775
        ]
      },
      "properties": {
        "id": "farm_cl2ib56nfi",
        "name": "The Narrowgate Farm shop",
        "slug": "the-narrowgate-farm-shop",
        "address": "Narrowgate Brow",
        "city": "Royton",
        "county": "England",
        "postcode": "OL2 6XU"
      }
    },
    {
      "type": "Feature",
      "geometry": {
        "type": "Point",
        "coordinates": [
          -2.5765323,
          53.4339664
        ]
      },
      "properties": {
        "id": "farm_qi4563yl31",
        "name": "Winwick Farm Shop",
        "slug": "winwick-farm-shop",
        "address": "47, Southworth Lane",
        "city": "Winwick",
        "county": "England",
        "postcode": "WA2 0RA"
      }
    },
    {
      "type": "Feature",
      "geometry": {
        "type": "Point",
        "coordinates": [
          -2.464599,
          53.78348140000001
        ]
      },
      "properties": {
        "id": "farm_wspsaejvv9",
        "name": "Margerison's Farm Shop",
        "slug": "margerison-s-farm-shop",
        "address": "Parsonage Road",
        "city": "",
        "county": "England",
        "postcode": "BB1 4AG"
      }
    },
    {
      "type": "Feature",
      "geometry": {
        "type": "Point",
        "coordinates": [
          -1.4903116,
          53.2325585
        ]
      },
      "properties": {
        "id": "farm_ubc8kypvb7",
        "name": "Adam's Happy Hens",
        "slug": "adam-s-happy-hens",
        "address": "Baslow Road",
        "city": "Holymoorside",
        "county": "England",
        "postcode": "S42 7BH"
      }
    },
    {
      "type": "Feature",
      "geometry": {
        "type": "Point",
        "coordinates": [
          -2.9626236,
          53.53944629999999
        ]
      },
      "properties": {
        "id": "farm_bnwmfy890i",
        "name": "Lydiate Hall Farm Shop",
        "slug": "lydiate-hall-farm-shop",
        "address": "Lydiate",
        "city": "Liverpool L31 4HD",
        "county": "England",
        "postcode": "UK"
      }
    },
    {
      "type": "Feature",
      "geometry": {
        "type": "Point",
        "coordinates": [
          -2.5683679,
          53.3280267
        ]
      },
      "properties": {
        "id": "farm_dhxb8n6pro",
        "name": "The Hollies Farm Shop - Lower Stretton",
        "slug": "the-hollies-farm-shop-lower-stretton",
        "address": "Northwich Road",
        "city": "Lower Stretton",
        "county": "England",
        "postcode": "WA4 4PG"
      }
    },
    {
      "type": "Feature",
      "geometry": {
        "type": "Point",
        "coordinates": [
          -2.4105883,
          53.21920249999999
        ]
      },
      "properties": {
        "id": "farm_euq2ddklm8",
        "name": "Lowe's Farm Shop",
        "slug": "lowe-s-farm-shop",
        "address": "Moss Lane",
        "city": "",
        "county": "England",
        "postcode": "CW10 9NG"
      }
    },
    {
      "type": "Feature",
      "geometry": {
        "type": "Point",
        "coordinates": [
          -2.7051587,
          53.3964071
        ]
      },
      "properties": {
        "id": "farm_3zbvdqowbv",
        "name": "Bold Heath Farm shop",
        "slug": "bold-heath-farm-shop",
        "address": "29, Mill Lane",
        "city": "Bold Heath",
        "county": "England",
        "postcode": "WA8 3UU"
      }
    },
    {
      "type": "Feature",
      "geometry": {
        "type": "Point",
        "coordinates": [
          -2.7497098,
          53.6960488
        ]
      },
      "properties": {
        "id": "farm_xz4rumok4v",
        "name": "Paul's Farm Shop",
        "slug": "paul-s-farm-shop",
        "address": "Dunkirk Lane",
        "city": "",
        "county": "England",
        "postcode": "PR26 7SY"
      }
    },
    {
      "type": "Feature",
      "geometry": {
        "type": "Point",
        "coordinates": [
          -2.9629766,
          53.75359719999999
        ]
      },
      "properties": {
        "id": "farm_vhl8ff5cfj",
        "name": "Pembertons Farm Shop & Dairies",
        "slug": "pembertons-farm-shop-dairies",
        "address": "Ballam Road",
        "city": "",
        "county": "England",
        "postcode": "FY8 4NL"
      }
    },
    {
      "type": "Feature",
      "geometry": {
        "type": "Point",
        "coordinates": [
          -2.3169365,
          52.3764444
        ]
      },
      "properties": {
        "id": "farm_ryowdrcgpk",
        "name": "Bewdley Farm Shop",
        "slug": "bewdley-farm-shop",
        "address": "Dog Lane",
        "city": "",
        "county": "England",
        "postcode": "DY12 2EF"
      }
    },
    {
      "type": "Feature",
      "geometry": {
        "type": "Point",
        "coordinates": [
          -1.4312078,
          52.2571111
        ]
      },
      "properties": {
        "id": "farm_wpdci2xy03",
        "name": "Greg's Eggs",
        "slug": "greg-s-eggs",
        "address": "Ufton",
        "city": "Southam CV47 2DN",
        "county": "England",
        "postcode": "UK"
      }
    },
    {
      "type": "Feature",
      "geometry": {
        "type": "Point",
        "coordinates": [
          -1.3319997,
          52.429168
        ]
      },
      "properties": {
        "id": "farm_0s4g8ockcx",
        "name": "Malt Kiln Farm Shop",
        "slug": "malt-kiln-farm-shop",
        "address": "Main Street",
        "city": "Stretton under Fosse",
        "county": "England",
        "postcode": "CV23 0PE"
      }
    },
    {
      "type": "Feature",
      "geometry": {
        "type": "Point",
        "coordinates": [
          -1.19188,
          52.3985791
        ]
      },
      "properties": {
        "id": "farm_b9omuxsvns",
        "name": "Manor Farm Shop",
        "slug": "manor-farm-shop",
        "address": "Main Street",
        "city": "Catthorpe",
        "county": "England",
        "postcode": "LE17 6DB"
      }
    },
    {
      "type": "Feature",
      "geometry": {
        "type": "Point",
        "coordinates": [
          -1.3531137,
          52.0390282
        ]
      },
      "properties": {
        "id": "farm_x29gwpck52",
        "name": "Wykham Park Farm",
        "slug": "wykham-park-farm",
        "address": "Wykham Lane",
        "city": "",
        "county": "England",
        "postcode": "OX16 9UP"
      }
    },
    {
      "type": "Feature",
      "geometry": {
        "type": "Point",
        "coordinates": [
          -2.4341845,
          52.7280221
        ]
      },
      "properties": {
        "id": "farm_b7jirw2ocn",
        "name": "Green Fields Farm Shop",
        "slug": "green-fields-farm-shop",
        "address": "Station Road",
        "city": "Donnington",
        "county": "England",
        "postcode": "TF2 8JY"
      }
    },
    {
      "type": "Feature",
      "geometry": {
        "type": "Point",
        "coordinates": [
          -1.9053609,
          52.1835396
        ]
      },
      "properties": {
        "id": "farm_hppfopvw83",
        "name": "Hillers Farm Shop",
        "slug": "hillers-farm-shop",
        "address": "Dunnington",
        "city": "Alcester B49 5PD",
        "county": "England",
        "postcode": "UK"
      }
    },
    {
      "type": "Feature",
      "geometry": {
        "type": "Point",
        "coordinates": [
          -2.0081321,
          52.8055416
        ]
      },
      "properties": {
        "id": "farm_l8un9m0wnm",
        "name": "Canalside Farm, Shop & Cafe",
        "slug": "canalside-farm-shop-cafe",
        "address": "Mill Lane",
        "city": "Great Haywood",
        "county": "England",
        "postcode": "ST18 0RQ"
      }
    },
    {
      "type": "Feature",
      "geometry": {
        "type": "Point",
        "coordinates": [
          -2.5069206,
          52.1483633
        ]
      },
      "properties": {
        "id": "farm_l231jb4wwy",
        "name": "Instone Court",
        "slug": "instone-court",
        "address": "Munderfield",
        "city": "Bromyard HR7 4JS",
        "county": "England",
        "postcode": "UK"
      }
    },
    {
      "type": "Feature",
      "geometry": {
        "type": "Point",
        "coordinates": [
          -1.6636016,
          52.385056
        ]
      },
      "properties": {
        "id": "farm_g5b3zqyevl",
        "name": "Oakes Farm Shop",
        "slug": "oakes-farm-shop",
        "address": "Balsall Street",
        "city": "Coventry CV7 7AQ",
        "county": "England",
        "postcode": "UK"
      }
    },
    {
      "type": "Feature",
      "geometry": {
        "type": "Point",
        "coordinates": [
          -1.6950381,
          52.2280218
        ]
      },
      "properties": {
        "id": "farm_bwm7uzen48",
        "name": "Cobbs at Stratford",
        "slug": "cobbs-at-stratford",
        "address": "King's Lane",
        "city": "Snitterfield",
        "county": "England",
        "postcode": "CV37 0QA"
      }
    },
    {
      "type": "Feature",
      "geometry": {
        "type": "Point",
        "coordinates": [
          -1.8869279,
          52.3731638
        ]
      },
      "properties": {
        "id": "farm_nvvlt7by9v",
        "name": "Becketts Farm",
        "slug": "becketts-farm",
        "address": "Alcester Road",
        "city": "Wythall",
        "county": "England",
        "postcode": "B47 6AJ"
      }
    },
    {
      "type": "Feature",
      "geometry": {
        "type": "Point",
        "coordinates": [
          -1.7341839,
          52.0533679
        ]
      },
      "properties": {
        "id": "farm_4rj3we6xbt",
        "name": "Vegetable Matters Farm Shop and Cafe",
        "slug": "vegetable-matters-farm-shop-and-cafe",
        "address": "May Lane",
        "city": "Ebrington",
        "county": "England",
        "postcode": "GL55 6NJ"
      }
    },
    {
      "type": "Feature",
      "geometry": {
        "type": "Point",
        "coordinates": [
          -2.189042,
          52.491414
        ]
      },
      "properties": {
        "id": "farm_rn6w18gy0x",
        "name": "Roberts Farm Shop",
        "slug": "roberts-farm-shop",
        "address": "Kidderminster Road",
        "city": "Stourbridge",
        "county": "England",
        "postcode": "DY6 0AA"
      }
    },
    {
      "type": "Feature",
      "geometry": {
        "type": "Point",
        "coordinates": [
          -1.7208846,
          52.541023
        ]
      },
      "properties": {
        "id": "farm_9936kpb0e0",
        "name": "A M Cooper & Sons, Mullensgrove Farm Shop",
        "slug": "a-m-cooper-sons-mullensgrove-farm-shop",
        "address": "Kingsbury Road",
        "city": "Curdworth",
        "county": "England",
        "postcode": "B76 0DF"
      }
    },
    {
      "type": "Feature",
      "geometry": {
        "type": "Point",
        "coordinates": [
          -1.9287378,
          52.1395811
        ]
      },
      "properties": {
        "id": "farm_i8brcww60u",
        "name": "Ellenden Farm Shop",
        "slug": "ellenden-farm-shop",
        "address": "Evesham Rd",
        "city": "Evesham WR11 8LU",
        "county": "England",
        "postcode": "UK"
      }
    },
    {
      "type": "Feature",
      "geometry": {
        "type": "Point",
        "coordinates": [
          -1.566426,
          52.604311
        ]
      },
      "properties": {
        "id": "farm_xo3vg7buap",
        "name": "The Smithy Farm Shop Ltd",
        "slug": "the-smithy-farm-shop-ltd",
        "address": "Warton Lane",
        "city": "Grendon",
        "county": "England",
        "postcode": "CV9 3DU"
      }
    },
    {
      "type": "Feature",
      "geometry": {
        "type": "Point",
        "coordinates": [
          -1.4496855,
          52.301367
        ]
      },
      "properties": {
        "id": "farm_yaiguybscw",
        "name": "Hilltop Farm",
        "slug": "hilltop-farm",
        "address": "Fosse Way",
        "city": "Hunningham",
        "county": "England",
        "postcode": "CV33 9EL"
      }
    },
    {
      "type": "Feature",
      "geometry": {
        "type": "Point",
        "coordinates": [
          -2.3961702,
          52.5947409
        ]
      },
      "properties": {
        "id": "farm_lddzxghmgv",
        "name": "Apley Farm Shop, Food Hall, Kitchen Cafe & Playbarn",
        "slug": "apley-farm-shop-food-hall-kitchen-cafe-playbarn",
        "address": "Stockton",
        "city": "Shifnal TF11 9EF",
        "county": "England",
        "postcode": "UK"
      }
    },
    {
      "type": "Feature",
      "geometry": {
        "type": "Point",
        "coordinates": [
          -2.2524759,
          52.2512974
        ]
      },
      "properties": {
        "id": "farm_dd0oe1i3fr",
        "name": "Top Barn Farm Shop",
        "slug": "top-barn-farm-shop",
        "address": "Worcester Road",
        "city": "Holt Heath",
        "county": "England",
        "postcode": "WR6 6NH"
      }
    },
    {
      "type": "Feature",
      "geometry": {
        "type": "Point",
        "coordinates": [
          -1.1942667,
          52.49172309999999
        ]
      },
      "properties": {
        "id": "farm_5yh420akz5",
        "name": "The Milk Shack",
        "slug": "the-milk-shack",
        "address": "Tollgate farm le174ly",
        "city": "Lutterworth LE17 4LY",
        "county": "England",
        "postcode": "UK"
      }
    },
    {
      "type": "Feature",
      "geometry": {
        "type": "Point",
        "coordinates": [
          -1.739217,
          52.631224
        ]
      },
      "properties": {
        "id": "farm_oqwsswtqvl",
        "name": "BODNETTS FARM SHOP",
        "slug": "bodnetts-farm-shop",
        "address": "Plantation Lane",
        "city": "",
        "county": "England",
        "postcode": "B78 3AU"
      }
    },
    {
      "type": "Feature",
      "geometry": {
        "type": "Point",
        "coordinates": [
          -1.8953759,
          52.0649429
        ]
      },
      "properties": {
        "id": "farm_9tsc1yq97i",
        "name": "Wayside Farm Shop and Tearoom",
        "slug": "wayside-farm-shop-and-tearoom",
        "address": "50, Pitchers Hill",
        "city": "Wickhamford",
        "county": "England",
        "postcode": "WR11 7RT"
      }
    },
    {
      "type": "Feature",
      "geometry": {
        "type": "Point",
        "coordinates": [
          -1.6139229,
          52.6634963
        ]
      },
      "properties": {
        "id": "farm_cb6640urzk",
        "name": "The Four Shires Farm Shop",
        "slug": "the-four-shires-farm-shop",
        "address": "The Green",
        "city": "Seckington",
        "county": "England",
        "postcode": "B79 0LB"
      }
    },
    {
      "type": "Feature",
      "geometry": {
        "type": "Point",
        "coordinates": [
          -2.4119836,
          52.6875497
        ]
      },
      "properties": {
        "id": "farm_5c8bu5zp06",
        "name": "Green Fields At Priorslee",
        "slug": "green-fields-at-priorslee",
        "address": "Salisbury Avenue",
        "city": "",
        "county": "England",
        "postcode": "TF2 9UR"
      }
    },
    {
      "type": "Feature",
      "geometry": {
        "type": "Point",
        "coordinates": [
          -2.2327093,
          52.0647265
        ]
      },
      "properties": {
        "id": "farm_mrhc0j4t92",
        "name": "Clive's Fruit Farm",
        "slug": "clive-s-fruit-farm",
        "address": "Willingsworth",
        "city": "Worcester WR8 0SA",
        "county": "England",
        "postcode": "UK"
      }
    },
    {
      "type": "Feature",
      "geometry": {
        "type": "Point",
        "coordinates": [
          -2.1672122,
          52.3893283
        ]
      },
      "properties": {
        "id": "farm_5rjgpq30z9",
        "name": "Stanleys Farm Shop & Pick Your Own",
        "slug": "stanleys-farm-shop-pick-your-own",
        "address": "Sandy Lane",
        "city": "Harvington",
        "county": "England",
        "postcode": "DY10 4NF"
      }
    },
    {
      "type": "Feature",
      "geometry": {
        "type": "Point",
        "coordinates": [
          -1.7717241,
          52.1006513
        ]
      },
      "properties": {
        "id": "farm_62pcv9ier1",
        "name": "Pages Farm Shop",
        "slug": "pages-farm-shop",
        "address": "Stratford Road",
        "city": "Mickleton",
        "county": "England",
        "postcode": "GL55 6SU"
      }
    },
    {
      "type": "Feature",
      "geometry": {
        "type": "Point",
        "coordinates": [
          -2.2642384,
          52.2664412
        ]
      },
      "properties": {
        "id": "farm_79ql1m9qa3",
        "name": "Broomfield\u2019s of Holt",
        "slug": "broomfields-of-holt",
        "address": "School Plantation",
        "city": "Worcester WR6 6NR",
        "county": "England",
        "postcode": "UK"
      }
    },
    {
      "type": "Feature",
      "geometry": {
        "type": "Point",
        "coordinates": [
          -1.8165572,
          52.7055991
        ]
      },
      "properties": {
        "id": "farm_ctxojox6yc",
        "name": "Curborough Hall Farm Countryside Centre",
        "slug": "curborough-hall-farm-countryside-centre",
        "address": "Watery Lane",
        "city": "",
        "county": "England",
        "postcode": "WS13 8ES"
      }
    },
    {
      "type": "Feature",
      "geometry": {
        "type": "Point",
        "coordinates": [
          -1.4305802,
          52.5293786
        ]
      },
      "properties": {
        "id": "farm_c60rqv9ja3",
        "name": "Poplars Farm Shop",
        "slug": "poplars-farm-shop",
        "address": "45, The Long Shoot",
        "city": "",
        "county": "England",
        "postcode": "CV11 6JG"
      }
    },
    {
      "type": "Feature",
      "geometry": {
        "type": "Point",
        "coordinates": [
          -2.322531,
          52.564909
        ]
      },
      "properties": {
        "id": "farm_1s9ibdd5i5",
        "name": "CLEARVIEW FARM SHOP",
        "slug": "clearview-farm-shop",
        "address": "B4176",
        "city": "Wolverhampton WV15 5NZ",
        "county": "England",
        "postcode": "UK"
      }
    },
    {
      "type": "Feature",
      "geometry": {
        "type": "Point",
        "coordinates": [
          -2.275083,
          52.180007
        ]
      },
      "properties": {
        "id": "farm_3pjc9bpfky",
        "name": "Roots Family Farm Shop",
        "slug": "roots-family-farm-shop",
        "address": "Bransford Road",
        "city": "Rushwick",
        "county": "England",
        "postcode": "WR2 5TD"
      }
    },
    {
      "type": "Feature",
      "geometry": {
        "type": "Point",
        "coordinates": [
          -1.8165268,
          52.7056045
        ]
      },
      "properties": {
        "id": "farm_qlpt8ras52",
        "name": "Bradbury's farm shop & Butchery",
        "slug": "bradbury-s-farm-shop-butchery",
        "address": "Watery Lane",
        "city": "",
        "county": "England",
        "postcode": "WS13 8ES"
      }
    },
    {
      "type": "Feature",
      "geometry": {
        "type": "Point",
        "coordinates": [
          -1.9672177,
          52.0876381
        ]
      },
      "properties": {
        "id": "farm_a6wzr982kd",
        "name": "Hampton Farm Shop",
        "slug": "hampton-farm-shop",
        "address": "Pershore Road",
        "city": "",
        "county": "England",
        "postcode": "WR11 2NB"
      }
    },
    {
      "type": "Feature",
      "geometry": {
        "type": "Point",
        "coordinates": [
          -1.3803746,
          52.5819758
        ]
      },
      "properties": {
        "id": "farm_yyx4lj0f8b",
        "name": "Bradshaw Farm & Shop",
        "slug": "bradshaw-farm-shop",
        "address": "Dadlington Lane",
        "city": "Stapleton",
        "county": "England",
        "postcode": "LE9 8JL"
      }
    },
    {
      "type": "Feature",
      "geometry": {
        "type": "Point",
        "coordinates": [
          -2.0156255,
          52.100483
        ]
      },
      "properties": {
        "id": "farm_5m8zkhnnbp",
        "name": "Clive's Of Cropthorne",
        "slug": "clive-s-of-cropthorne",
        "address": "Clive's Of Cropthorne",
        "city": "Pershore WR10 3NE",
        "county": "England",
        "postcode": "UK"
      }
    },
    {
      "type": "Feature",
      "geometry": {
        "type": "Point",
        "coordinates": [
          -2.2272,
          52.2279595
        ]
      },
      "properties": {
        "id": "farm_rnkswu2y92",
        "name": "Gwillams Farm Shop",
        "slug": "gwillams-farm-shop",
        "address": "Ombersley Road",
        "city": "Bevere",
        "county": "England",
        "postcode": "WR3 7RH"
      }
    },
    {
      "type": "Feature",
      "geometry": {
        "type": "Point",
        "coordinates": [
          -2.06904,
          52.632127
        ]
      },
      "properties": {
        "id": "farm_i2mxsec28b",
        "name": "Essington Farm",
        "slug": "essington-farm",
        "address": "Bognop Road",
        "city": "Essington",
        "county": "England",
        "postcode": "WV11 2AZ"
      }
    },
    {
      "type": "Feature",
      "geometry": {
        "type": "Point",
        "coordinates": [
          -1.9333771,
          52.5855031
        ]
      },
      "properties": {
        "id": "farm_au7dyu7u2i",
        "name": "Hayhead Farm Shop",
        "slug": "hayhead-farm-shop",
        "address": "Longwood Lane",
        "city": "",
        "county": "England",
        "postcode": "WS4 2JT"
      }
    },
    {
      "type": "Feature",
      "geometry": {
        "type": "Point",
        "coordinates": [
          -1.3857331,
          52.6495866
        ]
      },
      "properties": {
        "id": "farm_5sslxztvje",
        "name": "T A Ingham & Sons",
        "slug": "t-a-ingham-sons",
        "address": "Gnarley Farm",
        "city": "Nuneaton CV13 0HP",
        "county": "England",
        "postcode": "UK"
      }
    },
    {
      "type": "Feature",
      "geometry": {
        "type": "Point",
        "coordinates": [
          -1.2708325,
          52.732172
        ]
      },
      "properties": {
        "id": "farm_duddshjeg2",
        "name": "Charnwood Forest Farm",
        "slug": "charnwood-forest-farm",
        "address": "Charley Road",
        "city": "Nanpantan",
        "county": "England",
        "postcode": "LE12 9XJ"
      }
    },
    {
      "type": "Feature",
      "geometry": {
        "type": "Point",
        "coordinates": [
          -1.955613,
          52.61929490000001
        ]
      },
      "properties": {
        "id": "farm_uzt6n9xr8c",
        "name": "School Farm Shop",
        "slug": "school-farm-shop",
        "address": "Mill Road",
        "city": "Pelsall",
        "county": "England",
        "postcode": "WS4 1BT"
      }
    },
    {
      "type": "Feature",
      "geometry": {
        "type": "Point",
        "coordinates": [
          -1.9166268,
          52.5711852
        ]
      },
      "properties": {
        "id": "farm_kz91jlauts",
        "name": "Beacon Farm",
        "slug": "beacon-farm",
        "address": "Beacon Road",
        "city": "Aldridge",
        "county": "England",
        "postcode": "WS9 0QN"
      }
    },
    {
      "type": "Feature",
      "geometry": {
        "type": "Point",
        "coordinates": [
          -2.2480861,
          52.32214
        ]
      },
      "properties": {
        "id": "farm_hx8ugr06k6",
        "name": "Bell's Farm Shop & Pick Your Own",
        "slug": "bell-s-farm-shop-pick-your-own",
        "address": "Chadwick Bank",
        "city": "Stourport-on-Severn DY13 9SA",
        "county": "England",
        "postcode": "UK"
      }
    },
    {
      "type": "Feature",
      "geometry": {
        "type": "Point",
        "coordinates": [
          -1.9594444,
          52.1134111
        ]
      },
      "properties": {
        "id": "farm_zuywymy1jz",
        "name": "Chadbury Farm Shop & Caf\u00e9",
        "slug": "chadbury-farm-shop-cafe",
        "address": "Worcester Road",
        "city": "",
        "county": "England",
        "postcode": "WR11 4TD"
      }
    },
    {
      "type": "Feature",
      "geometry": {
        "type": "Point",
        "coordinates": [
          -1.6214983,
          52.5123066
        ]
      },
      "properties": {
        "id": "farm_e3g22pf9xo",
        "name": "The Farm shop at Hoar Park",
        "slug": "the-farm-shop-at-hoar-park",
        "address": "B4114",
        "city": "Nuneaton CV10 0QU",
        "county": "England",
        "postcode": "UK"
      }
    },
    {
      "type": "Feature",
      "geometry": {
        "type": "Point",
        "coordinates": [
          -1.4318832,
          52.8335881
        ]
      },
      "properties": {
        "id": "farm_0p437h8v3l",
        "name": "Tori & Ben's Farm Shop",
        "slug": "tori-ben-s-farm-shop",
        "address": "Kings Newton Lane",
        "city": "Derby DE73 8DD",
        "county": "England",
        "postcode": "UK"
      }
    },
    {
      "type": "Feature",
      "geometry": {
        "type": "Point",
        "coordinates": [
          -1.4264679,
          52.5713884
        ]
      },
      "properties": {
        "id": "farm_lqro3kfrze",
        "name": "Tomlinson's Farm Shop",
        "slug": "tomlinson-s-farm-shop",
        "address": "Upton Lane",
        "city": "Stoke Golding",
        "county": "England",
        "postcode": "CV13 6EU"
      }
    },
    {
      "type": "Feature",
      "geometry": {
        "type": "Point",
        "coordinates": [
          -1.8898122,
          52.5927313
        ]
      },
      "properties": {
        "id": "farm_090zri6p6t",
        "name": "Planters Pacific Garden Centre",
        "slug": "planters-pacific-garden-centre",
        "address": "Chester Road",
        "city": "The Royal Town of Sutton Coldfield",
        "county": "England",
        "postcode": "WS9 0PH"
      }
    },
    {
      "type": "Feature",
      "geometry": {
        "type": "Point",
        "coordinates": [
          -1.523551,
          52.3394039
        ]
      },
      "properties": {
        "id": "farm_vmv0mj3kg9",
        "name": "Farmers Fayre",
        "slug": "farmers-fayre",
        "address": "National Agricultural Centre",
        "city": "Kenilworth CV8 2LG",
        "county": "England",
        "postcode": "UK"
      }
    },
    {
      "type": "Feature",
      "geometry": {
        "type": "Point",
        "coordinates": [
          -2.3607151,
          52.48914329999999
        ]
      },
      "properties": {
        "id": "farm_mtwvhvj9oz",
        "name": "Quatt Farm Shop & Cafe",
        "slug": "quatt-farm-shop-cafe",
        "address": "Kidderminster Road",
        "city": "",
        "county": "England",
        "postcode": "WV15 6HB"
      }
    },
    {
      "type": "Feature",
      "geometry": {
        "type": "Point",
        "coordinates": [
          -2.132356,
          52.080786
        ]
      },
      "properties": {
        "id": "farm_a90s1xlzz1",
        "name": "Revills Farm Shop",
        "slug": "revills-farm-shop",
        "address": "Bourne Road",
        "city": "Defford",
        "county": "England",
        "postcode": "WR8 9BS"
      }
    },
    {
      "type": "Feature",
      "geometry": {
        "type": "Point",
        "coordinates": [
          -2.3235907,
          52.5560667
        ]
      },
      "properties": {
        "id": "farm_w8skvvvln5",
        "name": "Grange Farm Shop Hilton",
        "slug": "grange-farm-shop-hilton",
        "address": "Grange Farm",
        "city": "Bridgnorth WV15 5PD",
        "county": "England",
        "postcode": "UK"
      }
    },
    {
      "type": "Feature",
      "geometry": {
        "type": "Point",
        "coordinates": [
          -2.1957109,
          52.5083288
        ]
      },
      "properties": {
        "id": "farm_d6i2c5t1sz",
        "name": "Hinksford Farm Shop",
        "slug": "hinksford-farm-shop",
        "address": "Hinksford Lane",
        "city": "Swindon",
        "county": "England",
        "postcode": "DY6 0BH"
      }
    },
    {
      "type": "Feature",
      "geometry": {
        "type": "Point",
        "coordinates": [
          -2.4896599,
          52.05362239999999
        ]
      },
      "properties": {
        "id": "farm_z6byskgmbf",
        "name": "The Nest at Little Verzons farm",
        "slug": "the-nest-at-little-verzons-farm",
        "address": "Hereford Road",
        "city": "",
        "county": "England",
        "postcode": "HR8 2PZ"
      }
    },
    {
      "type": "Feature",
      "geometry": {
        "type": "Point",
        "coordinates": [
          -2.1754351,
          52.3206008
        ]
      },
      "properties": {
        "id": "farm_8rcpbntk1n",
        "name": "Bannutt Tree Farm Shop",
        "slug": "bannutt-tree-farm-shop",
        "address": "Bannuttree Farm",
        "city": "Droitwich WR9 0NF",
        "county": "England",
        "postcode": "UK"
      }
    },
    {
      "type": "Feature",
      "geometry": {
        "type": "Point",
        "coordinates": [
          -2.053857,
          52.4212722
        ]
      },
      "properties": {
        "id": "farm_jz45tbmtrk",
        "name": "Horsepool Farm Shop",
        "slug": "horsepool-farm-shop",
        "address": "164, Bromsgrove Road",
        "city": "",
        "county": "England",
        "postcode": "B62 0JX"
      }
    },
    {
      "type": "Feature",
      "geometry": {
        "type": "Point",
        "coordinates": [
          -1.747644,
          52.6871675
        ]
      },
      "properties": {
        "id": "farm_7oj117hkkk",
        "name": "Woodhouse Farm and Garden CIC",
        "slug": "woodhouse-farm-and-garden-cic",
        "address": "Woodhouse Farm",
        "city": "Lichfield WS13 8QG",
        "county": "England",
        "postcode": "UK"
      }
    },
    {
      "type": "Feature",
      "geometry": {
        "type": "Point",
        "coordinates": [
          -2.1587877,
          52.3554866
        ]
      },
      "properties": {
        "id": "farm_oyvqcet43c",
        "name": "Rowberry's Farm Shop",
        "slug": "rowberry-s-farm-shop",
        "address": "Kidderminster DY10 4QN",
        "city": "",
        "county": "England",
        "postcode": "UK"
      }
    },
    {
      "type": "Feature",
      "geometry": {
        "type": "Point",
        "coordinates": [
          -0.9009626999999999,
          53.5685803
        ]
      },
      "properties": {
        "id": "farm_ej2cuuonf4",
        "name": "The Willows Farm Shop",
        "slug": "the-willows-farm-shop",
        "address": "Low Levels Bank",
        "city": "Hatfield",
        "county": "England",
        "postcode": "DN8 5TG"
      }
    },
    {
      "type": "Feature",
      "geometry": {
        "type": "Point",
        "coordinates": [
          -2.2809513,
          53.4034696
        ]
      },
      "properties": {
        "id": "farm_x8nkdtt8xa",
        "name": "Wythenshawe Community Farm & Shop",
        "slug": "wythenshawe-community-farm-shop",
        "address": "Wythenshawe Road",
        "city": "Wythenshawe",
        "county": "England",
        "postcode": "M23 0AB"
      }
    },
    {
      "type": "Feature",
      "geometry": {
        "type": "Point",
        "coordinates": [
          -2.153024,
          54.032306
        ]
      },
      "properties": {
        "id": "farm_byi60mmsp3",
        "name": "Town End Farm Shop",
        "slug": "town-end-farm-shop",
        "address": "Airton",
        "city": "Skipton BD23 4BE",
        "county": "England",
        "postcode": "UK"
      }
    },
    {
      "type": "Feature",
      "geometry": {
        "type": "Point",
        "coordinates": [
          -1.3523332,
          53.604366
        ]
      },
      "properties": {
        "id": "farm_ognxehqjuj",
        "name": "Moortop Farm Shop",
        "slug": "moortop-farm-shop",
        "address": "Moortop Farm/Southmoor Rd",
        "city": "Pontefract WF9 4NA",
        "county": "England",
        "postcode": "UK"
      }
    },
    {
      "type": "Feature",
      "geometry": {
        "type": "Point",
        "coordinates": [
          -2.0073801,
          53.4378178
        ]
      },
      "properties": {
        "id": "farm_s2dia1mgun",
        "name": "Lymefield Garden Centre, Farm Shop and Tea Room",
        "slug": "lymefield-garden-centre-farm-shop-and-tea-room",
        "address": "Lymefield",
        "city": "Broadbottom",
        "county": "England",
        "postcode": "SK14 6AG"
      }
    },
    {
      "type": "Feature",
      "geometry": {
        "type": "Point",
        "coordinates": [
          -2.0412258,
          53.96547409999999
        ]
      },
      "properties": {
        "id": "farm_4svyxisdc0",
        "name": "Robertshaws",
        "slug": "robertshaws",
        "address": "21, Gargrave Road",
        "city": "",
        "county": "England",
        "postcode": "BD23 1UD"
      }
    },
    {
      "type": "Feature",
      "geometry": {
        "type": "Point",
        "coordinates": [
          -1.2085283,
          53.5358888
        ]
      },
      "properties": {
        "id": "farm_rv0d0ljpow",
        "name": "Marr Grange Farm Shop & Tearooms",
        "slug": "marr-grange-farm-shop-tearooms",
        "address": "Marr Grange Lane",
        "city": "",
        "county": "England",
        "postcode": "DN5 7AS"
      }
    },
    {
      "type": "Feature",
      "geometry": {
        "type": "Point",
        "coordinates": [
          -1.3795979,
          53.7255201
        ]
      },
      "properties": {
        "id": "farm_8l0yzai6il",
        "name": "Methley Bridge Farm Shop",
        "slug": "methley-bridge-farm-shop",
        "address": "Farm, Methley Road, Leeds Road",
        "city": "",
        "county": "England",
        "postcode": "WF10 1QR"
      }
    },
    {
      "type": "Feature",
      "geometry": {
        "type": "Point",
        "coordinates": [
          -1.9907644,
          53.6956907
        ]
      },
      "properties": {
        "id": "farm_pekac8ytbd",
        "name": "Craggies Farm Shop",
        "slug": "craggies-farm-shop",
        "address": "New Road",
        "city": "Cragg Vale",
        "county": "England",
        "postcode": "HX7 5TT"
      }
    },
    {
      "type": "Feature",
      "geometry": {
        "type": "Point",
        "coordinates": [
          -2.1358132,
          53.36915219999999
        ]
      },
      "properties": {
        "id": "farm_8zh6bagovr",
        "name": "Norbury Farm Shop",
        "slug": "norbury-farm-shop",
        "address": "Jacksons Lane",
        "city": "Hazel Grove",
        "county": "England",
        "postcode": "SK7 5JS"
      }
    },
    {
      "type": "Feature",
      "geometry": {
        "type": "Point",
        "coordinates": [
          -1.0691917,
          53.5746632
        ]
      },
      "properties": {
        "id": "farm_cu8oi3cfmw",
        "name": "The Farm Shop",
        "slug": "the-farm-shop",
        "address": "High Street",
        "city": "Barnby Dun",
        "county": "England",
        "postcode": "DN3 1DU"
      }
    },
    {
      "type": "Feature",
      "geometry": {
        "type": "Point",
        "coordinates": [
          -1.620461,
          53.9135735
        ]
      },
      "properties": {
        "id": "farm_w3of5y34h5",
        "name": "Leathley Farm Shop and Cafe",
        "slug": "leathley-farm-shop-and-cafe",
        "address": "Harrogate Road",
        "city": "",
        "county": "England",
        "postcode": "LS21 2PS"
      }
    },
    {
      "type": "Feature",
      "geometry": {
        "type": "Point",
        "coordinates": [
          -2.0199678,
          53.4621832
        ]
      },
      "properties": {
        "id": "farm_4cu3gx62p5",
        "name": "Old mill farm shop",
        "slug": "old-mill-farm-shop",
        "address": "Edge Lane",
        "city": "Mottram in Longdendale",
        "county": "England",
        "postcode": "SK14 6SE"
      }
    },
    {
      "type": "Feature",
      "geometry": {
        "type": "Point",
        "coordinates": [
          -0.9376928999999998,
          53.9904443
        ]
      },
      "properties": {
        "id": "farm_1tga65gp8u",
        "name": "The Balloon Tree Farmshop & Cafe",
        "slug": "the-balloon-tree-farmshop-cafe",
        "address": "Stamford Bridge Road",
        "city": "",
        "county": "England",
        "postcode": "YO41 1NB"
      }
    },
    {
      "type": "Feature",
      "geometry": {
        "type": "Point",
        "coordinates": [
          -1.5002007,
          53.9828845
        ]
      },
      "properties": {
        "id": "farm_o3l7oqg12z",
        "name": "Fodder - Great Yorkshire Food Hall",
        "slug": "fodder-great-yorkshire-food-hall",
        "address": "Railway Road",
        "city": "",
        "county": "England",
        "postcode": "HG2 8NZ"
      }
    },
    {
      "type": "Feature",
      "geometry": {
        "type": "Point",
        "coordinates": [
          -1.7426353,
          53.348919
        ]
      },
      "properties": {
        "id": "farm_96fqgl1116",
        "name": "Watson's Farm Shop",
        "slug": "watson-s-farm-shop",
        "address": "Hope",
        "city": "Hope Valley S33 6ZF",
        "county": "England",
        "postcode": "UK"
      }
    },
    {
      "type": "Feature",
      "geometry": {
        "type": "Point",
        "coordinates": [
          -1.3355038,
          53.6801904
        ]
      },
      "properties": {
        "id": "farm_e1xsigj4g1",
        "name": "Farmer Copleys",
        "slug": "farmer-copleys",
        "address": "Ravensknowle Farm",
        "city": "Pontefract WF7 5AF",
        "county": "England",
        "postcode": "UK"
      }
    },
    {
      "type": "Feature",
      "geometry": {
        "type": "Point",
        "coordinates": [
          -1.2854,
          53.398428
        ]
      },
      "properties": {
        "id": "farm_nb9iurees4",
        "name": "Lawns Farm Shop",
        "slug": "lawns-farm-shop",
        "address": "York Lane",
        "city": "Morthen",
        "county": "England",
        "postcode": "S66 9JH"
      }
    },
    {
      "type": "Feature",
      "geometry": {
        "type": "Point",
        "coordinates": [
          -0.9532974,
          53.48983
        ]
      },
      "properties": {
        "id": "farm_z8x0vm4mfk",
        "name": "McCallums Farm Shop",
        "slug": "mccallums-farm-shop",
        "address": "Bank End Road",
        "city": "Blaxton",
        "county": "England",
        "postcode": "DN9 3NT"
      }
    },
    {
      "type": "Feature",
      "geometry": {
        "type": "Point",
        "coordinates": [
          -1.6321805,
          53.714548
        ]
      },
      "properties": {
        "id": "farm_b0fnn07udc",
        "name": "Creamy Cow",
        "slug": "creamy-cow",
        "address": "Alfreds Way",
        "city": "",
        "county": "England",
        "postcode": "WF17 5DR"
      }
    },
    {
      "type": "Feature",
      "geometry": {
        "type": "Point",
        "coordinates": [
          -1.1841403,
          53.6503386
        ]
      },
      "properties": {
        "id": "farm_rjwe2mnniz",
        "name": "The Range",
        "slug": "the-range",
        "address": "Stubbs Walden",
        "city": "Doncaster DN6 9BT",
        "county": "England",
        "postcode": "UK"
      }
    },
    {
      "type": "Feature",
      "geometry": {
        "type": "Point",
        "coordinates": [
          -0.8335549999999999,
          53.552585
        ]
      },
      "properties": {
        "id": "farm_vbu8ahqe07",
        "name": "Medley Farm Shop",
        "slug": "medley-farm-shop",
        "address": "Carrhouse Road",
        "city": "Belton",
        "county": "England",
        "postcode": "DN9 1PG"
      }
    },
    {
      "type": "Feature",
      "geometry": {
        "type": "Point",
        "coordinates": [
          -2.2739241,
          53.9126562
        ]
      },
      "properties": {
        "id": "farm_w6r0i76c9i",
        "name": "Gazegill Organics Farm Shop",
        "slug": "gazegill-organics-farm-shop",
        "address": "Cross Hill Lane",
        "city": "",
        "county": "England",
        "postcode": "BB7 4EE"
      }
    },
    {
      "type": "Feature",
      "geometry": {
        "type": "Point",
        "coordinates": [
          -1.7005888,
          53.7459821
        ]
      },
      "properties": {
        "id": "farm_8outwfpjzj",
        "name": "Blue Hills Farm",
        "slug": "blue-hills-farm",
        "address": "Birkenshaw",
        "city": "Bradford BD11 2DU",
        "county": "England",
        "postcode": "UK"
      }
    },
    {
      "type": "Feature",
      "geometry": {
        "type": "Point",
        "coordinates": [
          -1.6279824,
          53.8671202
        ]
      },
      "properties": {
        "id": "farm_hrockdkx4b",
        "name": "Crag House Farm",
        "slug": "crag-house-farm",
        "address": "Otley Old Road",
        "city": "Cookridge",
        "county": "England",
        "postcode": "LS16 7NH"
      }
    },
    {
      "type": "Feature",
      "geometry": {
        "type": "Point",
        "coordinates": [
          -1.8131661,
          53.82604079999999
        ]
      },
      "properties": {
        "id": "farm_4x9akyrf9j",
        "name": "Ludbrook's Farm Shop",
        "slug": "ludbrook-s-farm-shop",
        "address": "Cottingley Cliffe Road",
        "city": "",
        "county": "England",
        "postcode": "BD16 1UW"
      }
    },
    {
      "type": "Feature",
      "geometry": {
        "type": "Point",
        "coordinates": [
          -1.0172696,
          54.2497655
        ]
      },
      "properties": {
        "id": "farm_jjj7rgfd6d",
        "name": "Beadlam Grange Farmshop and Tea Room",
        "slug": "beadlam-grange-farmshop-and-tea-room",
        "address": "Beadlam Grange Farmshop",
        "city": "York YO62 7TD",
        "county": "England",
        "postcode": "UK"
      }
    },
    {
      "type": "Feature",
      "geometry": {
        "type": "Point",
        "coordinates": [
          -1.8694931,
          53.9397354
        ]
      },
      "properties": {
        "id": "farm_s8k3a23e9r",
        "name": "The Joyful Deli",
        "slug": "the-joyful-deli",
        "address": "Ilkley Road",
        "city": "Addingham",
        "county": "England",
        "postcode": "LS29 0RR"
      }
    },
    {
      "type": "Feature",
      "geometry": {
        "type": "Point",
        "coordinates": [
          -2.0046479,
          53.5355144
        ]
      },
      "properties": {
        "id": "farm_8pd68x53wg",
        "name": "Harrop's Farm Shop",
        "slug": "harrop-s-farm-shop",
        "address": "135, Chew Valley Road",
        "city": "Greenfield",
        "county": "England",
        "postcode": "OL3 7JN"
      }
    },
    {
      "type": "Feature",
      "geometry": {
        "type": "Point",
        "coordinates": [
          -2.0345499,
          54.03784169999999
        ]
      },
      "properties": {
        "id": "farm_mfaz334vhb",
        "name": "Jacksons Of Cracoe",
        "slug": "jacksons-of-cracoe",
        "address": "The Farm Shop",
        "city": "Skipton BD23 6LB",
        "county": "England",
        "postcode": "UK"
      }
    },
    {
      "type": "Feature",
      "geometry": {
        "type": "Point",
        "coordinates": [
          -1.0537543,
          53.9148498
        ]
      },
      "properties": {
        "id": "farm_kwk3o891f2",
        "name": "Lodge Cottage Farm Shop",
        "slug": "lodge-cottage-farm-shop",
        "address": "Lodge cottage",
        "city": "York YO19 4SJ",
        "county": "England",
        "postcode": "UK"
      }
    },
    {
      "type": "Feature",
      "geometry": {
        "type": "Point",
        "coordinates": [
          -1.5376532,
          53.4902448
        ]
      },
      "properties": {
        "id": "farm_e9tsbmmnrz",
        "name": "Wortley Farm Shop",
        "slug": "wortley-farm-shop",
        "address": "Park Avenue",
        "city": "Wortley",
        "county": "England",
        "postcode": "S35 7DB"
      }
    },
    {
      "type": "Feature",
      "geometry": {
        "type": "Point",
        "coordinates": [
          -1.350555,
          53.779757
        ]
      },
      "properties": {
        "id": "farm_ax5j105om3",
        "name": "Peckfield Farm Produce",
        "slug": "peckfield-farm-produce",
        "address": "Selby Road",
        "city": "Leeds LS25 4BD",
        "county": "England",
        "postcode": "UK"
      }
    },
    {
      "type": "Feature",
      "geometry": {
        "type": "Point",
        "coordinates": [
          -1.3147237,
          53.89178339999999
        ]
      },
      "properties": {
        "id": "farm_ts5aqr70tw",
        "name": "Toulston Hall Farm",
        "slug": "toulston-hall-farm",
        "address": "Wetherby Road",
        "city": "Newton Kyme",
        "county": "England",
        "postcode": "LS24 9LT"
      }
    },
    {
      "type": "Feature",
      "geometry": {
        "type": "Point",
        "coordinates": [
          -1.1822627,
          54.1660203
        ]
      },
      "properties": {
        "id": "farm_bo36oc91mj",
        "name": "Farm Gate Farm Shop and Free Range Butchery",
        "slug": "farm-gate-farm-shop-and-free-range-butchery",
        "address": "Thornton Lane",
        "city": "Easingwold",
        "county": "England",
        "postcode": "YO61 3QB"
      }
    },
    {
      "type": "Feature",
      "geometry": {
        "type": "Point",
        "coordinates": [
          -2.3905377,
          53.38938350000001
        ]
      },
      "properties": {
        "id": "farm_x0ntq1124k",
        "name": "Little Heath Farm Shop",
        "slug": "little-heath-farm-shop",
        "address": "School Lane",
        "city": "",
        "county": "England",
        "postcode": "WA14 4SE"
      }
    },
    {
      "type": "Feature",
      "geometry": {
        "type": "Point",
        "coordinates": [
          -2.9159438,
          53.5886188
        ]
      },
      "properties": {
        "id": "farm_f8axodprwl",
        "name": "Diglake Farm Shop",
        "slug": "diglake-farm-shop",
        "address": "Southport Road",
        "city": "Scarisbrick",
        "county": "England",
        "postcode": "L40 8HF"
      }
    },
    {
      "type": "Feature",
      "geometry": {
        "type": "Point",
        "coordinates": [
          -2.3499451,
          53.292474
        ]
      },
      "properties": {
        "id": "farm_hezpkq82f5",
        "name": "The Lambing Shed Farm Shop & Kitchen",
        "slug": "the-lambing-shed-farm-shop-kitchen",
        "address": "Chelford Road",
        "city": "",
        "county": "England",
        "postcode": "WA16 8RB"
      }
    },
    {
      "type": "Feature",
      "geometry": {
        "type": "Point",
        "coordinates": [
          -2.7139103,
          53.7744078
        ]
      },
      "properties": {
        "id": "farm_o64jl2bi01",
        "name": "Ward Field Farm Shop",
        "slug": "ward-field-farm-shop",
        "address": "254, Plungington Road",
        "city": "Fulwood",
        "county": "England",
        "postcode": "PR2 3PQ"
      }
    },
    {
      "type": "Feature",
      "geometry": {
        "type": "Point",
        "coordinates": [
          -2.7878629,
          53.6189013
        ]
      },
      "properties": {
        "id": "farm_a1ihii6xfd",
        "name": "Owd Barn at Bispham",
        "slug": "owd-barn-at-bispham",
        "address": "Rufford Road",
        "city": "",
        "county": "England",
        "postcode": "L40 3SA"
      }
    },
    {
      "type": "Feature",
      "geometry": {
        "type": "Point",
        "coordinates": [
          -2.3735234,
          53.353459
        ]
      },
      "properties": {
        "id": "farm_zwrrcaxxo5",
        "name": "Fentons Farm Foods",
        "slug": "fentons-farm-foods",
        "address": "Cherry Tree Lane",
        "city": "",
        "county": "England",
        "postcode": "WA14 3QW"
      }
    },
    {
      "type": "Feature",
      "geometry": {
        "type": "Point",
        "coordinates": [
          -2.9609946,
          53.5433233
        ]
      },
      "properties": {
        "id": "farm_z91k3p1czd",
        "name": "Church View Farm",
        "slug": "church-view-farm",
        "address": "Southport Road",
        "city": "Lydiate",
        "county": "England",
        "postcode": "L31 4HJ"
      }
    },
    {
      "type": "Feature",
      "geometry": {
        "type": "Point",
        "coordinates": [
          -2.7188909,
          53.6129376
        ]
      },
      "properties": {
        "id": "farm_9ddy7dq5g5",
        "name": "Toogood Farm Shop",
        "slug": "toogood-farm-shop",
        "address": "4, Toogood Lane",
        "city": "Wrightington",
        "county": "England",
        "postcode": "WN6 9PN"
      }
    },
    {
      "type": "Feature",
      "geometry": {
        "type": "Point",
        "coordinates": [
          -2.8992463,
          53.5016511
        ]
      },
      "properties": {
        "id": "farm_mtaoxqa84n",
        "name": "Melling Farm Shop & Coffee garden",
        "slug": "melling-farm-shop-coffee-garden",
        "address": "Bank Lane",
        "city": "Melling",
        "county": "England",
        "postcode": "L31 1AX"
      }
    },
    {
      "type": "Feature",
      "geometry": {
        "type": "Point",
        "coordinates": [
          -3.0568106,
          53.1719032
        ]
      },
      "properties": {
        "id": "farm_h9nr8s4mdx",
        "name": "Lesters Farm Shop",
        "slug": "lesters-farm-shop",
        "address": "76, Drury Lane",
        "city": "Drury",
        "county": "Wales",
        "postcode": "CH7 3DX"
      }
    },
    {
      "type": "Feature",
      "geometry": {
        "type": "Point",
        "coordinates": [
          -3.1134089,
          53.11293010000001
        ]
      },
      "properties": {
        "id": "farm_ssobo9sqkg",
        "name": "Swans Farm Shop",
        "slug": "swans-farm-shop",
        "address": "1, A5104",
        "city": "Treuddyn",
        "county": "Wales",
        "postcode": "CH7 4LL"
      }
    },
    {
      "type": "Feature",
      "geometry": {
        "type": "Point",
        "coordinates": [
          -2.4842657,
          53.1270592
        ]
      },
      "properties": {
        "id": "farm_f4kbfkt9lj",
        "name": "L.hollinshead farm shop",
        "slug": "l-hollinshead-farm-shop",
        "address": "Eardswick Lane",
        "city": "",
        "county": "England",
        "postcode": "CW1 4RA"
      }
    },
    {
      "type": "Feature",
      "geometry": {
        "type": "Point",
        "coordinates": [
          -3.0791146,
          53.1676388
        ]
      },